{
"type": "FeatureCollection",
"name": "centpop",
"features": [
{ "type": "Feature", "properties": { "GISJOIN": "G0100010", "GEOID": "01001", "STATEFP": "01", "COUNTYFP": "001", "STNAME": "Alabama", "COUNAME": "Autauga", "POPULATION": 54571.0, "LATITUDE": 32.500389, "LONGITUDE": -86.494165 }, "geometry": { "type": "Point", "coordinates": [ 886892.257953329826705, -514834.716801524162292 ] } },
{ "type": "Feature", "properties": { "GISJOIN": "G0100030", "GEOID": "01003", "STATEFP": "01", "COUNTYFP": "003", "STNAME": "Alabama", "COUNAME": "Baldwin", "POPULATION": 182265.0, "LATITUDE": 30.548923, "LONGITUDE": -87.762381 }, "geometry": { "type": "Point", "coordinates": [ 787693.815022215829231, -742299.308913271874189 ] } },
{ "type": "Feature", "properties": { "GISJOIN": "G0100050", "GEOID": "01005", "STATEFP": "01", "COUNTYFP": "005", "STNAME": "Alabama", "COUNAME": "Barbour", "POPULATION": 27457.0, "LATITUDE": 31.844036, "LONGITUDE": -85.310038 }, "geometry": { "type": "Point", "coordinates": [ 1005141.852634090464562, -575787.317103128880262 ] } },
{ "type": "Feature", "properties": { "GISJOIN": "G0100070", "GEOID": "01007", "STATEFP": "01", "COUNTYFP": "007", "STNAME": "Alabama", "COUNAME": "Bibb", "POPULATION": 22915.0, "LATITUDE": 33.030921, "LONGITUDE": -87.127659 }, "geometry": { "type": "Point", "coordinates": [ 822447.71830136294011, -461621.398127714172006 ] } },
{ "type": "Feature", "properties": { "GISJOIN": "G0100090", "GEOID": "01009", "STATEFP": "01", "COUNTYFP": "009", "STNAME": "Alabama", "COUNAME": "Blount", "POPULATION": 57322.0, "LATITUDE": 33.955243, "LONGITUDE": -86.591491 }, "geometry": { "type": "Point", "coordinates": [ 861788.248198919114657, -354117.200243121013045 ] } },
{ "type": "Feature", "properties": { "GISJOIN": "G0100110", "GEOID": "01011", "STATEFP": "01", "COUNTYFP": "011", "STNAME": "Alabama", "COUNAME": "Bullock", "POPULATION": 10914.0, "LATITUDE": 32.116327, "LONGITUDE": -85.701192 }, "geometry": { "type": "Point", "coordinates": [ 965228.558837867458351, -549689.948429137468338 ] } },
{ "type": "Feature", "properties": { "GISJOIN": "G0100130", "GEOID": "01013", "STATEFP": "01", "COUNTYFP": "013", "STNAME": "Alabama", "COUNAME": "Butler", "POPULATION": 20947.0, "LATITUDE": 31.773539, "LONGITUDE": -86.65355 }, "geometry": { "type": "Point", "coordinates": [ 880023.850058510084637, -596921.668750135228038 ] } },
{ "type": "Feature", "properties": { "GISJOIN": "G0100150", "GEOID": "01015", "STATEFP": "01", "COUNTYFP": "015", "STNAME": "Alabama", "COUNAME": "Calhoun", "POPULATION": 118572.0, "LATITUDE": 33.72546, "LONGITUDE": -85.819442 }, "geometry": { "type": "Point", "coordinates": [ 934990.162305228295736, -372357.45309504494071 ] } },
{ "type": "Feature", "properties": { "GISJOIN": "G0100170", "GEOID": "01017", "STATEFP": "01", "COUNTYFP": "017", "STNAME": "Alabama", "COUNAME": "Chambers", "POPULATION": 34215.0, "LATITUDE": 32.860439, "LONGITUDE": -85.266474 }, "geometry": { "type": "Point", "coordinates": [ 996449.622007542755455, -462733.998537480831146 ] } },
{ "type": "Feature", "properties": { "GISJOIN": "G0100190", "GEOID": "01019", "STATEFP": "01", "COUNTYFP": "019", "STNAME": "Alabama", "COUNAME": "Cherokee", "POPULATION": 25989.0, "LATITUDE": 34.179333, "LONGITUDE": -85.629194 }, "geometry": { "type": "Point", "coordinates": [ 946869.811545451171696, -320049.142485754564404 ] } },
{ "type": "Feature", "properties": { "GISJOIN": "G0100210", "GEOID": "01021", "STATEFP": "01", "COUNTYFP": "021", "STNAME": "Alabama", "COUNAME": "Chilton", "POPULATION": 43643.0, "LATITUDE": 32.877547, "LONGITUDE": -86.687406 }, "geometry": { "type": "Point", "coordinates": [ 864805.185460507986136, -474750.606991233304143 ] } },
{ "type": "Feature", "properties": { "GISJOIN": "G0100230", "GEOID": "01023", "STATEFP": "01", "COUNTYFP": "023", "STNAME": "Alabama", "COUNAME": "Choctaw", "POPULATION": 13859.0, "LATITUDE": 32.016562, "LONGITUDE": -88.264164 }, "geometry": { "type": "Point", "coordinates": [ 726543.80443323974032, -583572.167107714340091 ] } },
{ "type": "Feature", "properties": { "GISJOIN": "G0100250", "GEOID": "01025", "STATEFP": "01", "COUNTYFP": "025", "STNAME": "Alabama", "COUNAME": "Clarke", "POPULATION": 25833.0, "LATITUDE": 31.685685, "LONGITUDE": -87.815673 }, "geometry": { "type": "Point", "coordinates": [ 771734.544072596589103, -616763.498266762122512 ] } },
{ "type": "Feature", "properties": { "GISJOIN": "G0100270", "GEOID": "01027", "STATEFP": "01", "COUNTYFP": "027", "STNAME": "Alabama", "COUNAME": "Clay", "POPULATION": 13932.0, "LATITUDE": 33.272412, "LONGITUDE": -85.820227 }, "geometry": { "type": "Point", "coordinates": [ 940327.931257984368131, -422673.044289700686932 ] } },
{ "type": "Feature", "properties": { "GISJOIN": "G0100290", "GEOID": "01029", "STATEFP": "01", "COUNTYFP": "029", "STNAME": "Alabama", "COUNAME": "Cleburne", "POPULATION": 14972.0, "LATITUDE": 33.62977, "LONGITUDE": -85.494315 }, "geometry": { "type": "Point", "coordinates": [ 965909.536147350212559, -379732.163912681862712 ] } },
{ "type": "Feature", "properties": { "GISJOIN": "G0100310", "GEOID": "01031", "STATEFP": "01", "COUNTYFP": "031", "STNAME": "Alabama", "COUNAME": "Coffee", "POPULATION": 49948.0, "LATITUDE": 31.354433, "LONGITUDE": -85.904715 }, "geometry": { "type": "Point", "coordinates": [ 955222.802340941387229, -636106.337169134989381 ] } },
{ "type": "Feature", "properties": { "GISJOIN": "G0100330", "GEOID": "01033", "STATEFP": "01", "COUNTYFP": "033", "STNAME": "Alabama", "COUNAME": "Colbert", "POPULATION": 54428.0, "LATITUDE": 34.723385, "LONGITUDE": -87.685151 }, "geometry": { "type": "Point", "coordinates": [ 754380.726310278056189, -277907.251680333167315 ] } },
{ "type": "Feature", "properties": { "GISJOIN": "G0100350", "GEOID": "01035", "STATEFP": "01", "COUNTYFP": "035", "STNAME": "Alabama", "COUNAME": "Conecuh", "POPULATION": 13228.0, "LATITUDE": 31.418674, "LONGITUDE": -86.996483 }, "geometry": { "type": "Point", "coordinates": [ 851570.728775284718722, -639371.353013049811125 ] } },
{ "type": "Feature", "properties": { "GISJOIN": "G0100370", "GEOID": "01037", "STATEFP": "01", "COUNTYFP": "037", "STNAME": "Alabama", "COUNAME": "Coosa", "POPULATION": 11539.0, "LATITUDE": 32.975932, "LONGITUDE": -86.155035 }, "geometry": { "type": "Point", "coordinates": [ 912935.829038722557016, -458848.132355663925409 ] } },
{ "type": "Feature", "properties": { "GISJOIN": "G0100390", "GEOID": "01039", "STATEFP": "01", "COUNTYFP": "039", "STNAME": "Alabama", "COUNAME": "Covington", "POPULATION": 37765.0, "LATITUDE": 31.282449, "LONGITUDE": -86.410955 }, "geometry": { "type": "Point", "coordinates": [ 908295.889904253650457, -649037.125940497964621 ] } },
{ "type": "Feature", "properties": { "GISJOIN": "G0100410", "GEOID": "01041", "STATEFP": "01", "COUNTYFP": "041", "STNAME": "Alabama", "COUNAME": "Crenshaw", "POPULATION": 13906.0, "LATITUDE": 31.743487, "LONGITUDE": -86.29708 }, "geometry": { "type": "Point", "coordinates": [ 913814.189624272170477, -596887.412185240536928 ] } },
{ "type": "Feature", "properties": { "GISJOIN": "G0100430", "GEOID": "01043", "STATEFP": "01", "COUNTYFP": "043", "STNAME": "Alabama", "COUNAME": "Cullman", "POPULATION": 80406.0, "LATITUDE": 34.162362, "LONGITUDE": -86.831859 }, "geometry": { "type": "Point", "coordinates": [ 837610.794991496601142, -333227.856091594323516 ] } },
{ "type": "Feature", "properties": { "GISJOIN": "G0100450", "GEOID": "01045", "STATEFP": "01", "COUNTYFP": "045", "STNAME": "Alabama", "COUNAME": "Dale", "POPULATION": 50251.0, "LATITUDE": 31.383346, "LONGITUDE": -85.641269 }, "geometry": { "type": "Point", "coordinates": [ 979702.668637737864628, -630225.315915623679757 ] } },
{ "type": "Feature", "properties": { "GISJOIN": "G0100470", "GEOID": "01047", "STATEFP": "01", "COUNTYFP": "047", "STNAME": "Alabama", "COUNAME": "Dallas", "POPULATION": 43820.0, "LATITUDE": 32.408815, "LONGITUDE": -87.034955 }, "geometry": { "type": "Point", "coordinates": [ 837552.804990034084767, -529904.074850708246231 ] } },
{ "type": "Feature", "properties": { "GISJOIN": "G0100490", "GEOID": "01049", "STATEFP": "01", "COUNTYFP": "049", "STNAME": "Alabama", "COUNAME": "DeKalb", "POPULATION": 71109.0, "LATITUDE": 34.45511, "LONGITUDE": -85.817208 }, "geometry": { "type": "Point", "coordinates": [ 926472.851196154369973, -291250.01157677732408 ] } },
{ "type": "Feature", "properties": { "GISJOIN": "G0100510", "GEOID": "01051", "STATEFP": "01", "COUNTYFP": "051", "STNAME": "Alabama", "COUNAME": "Elmore", "POPULATION": 79303.0, "LATITUDE": 32.559652, "LONGITUDE": -86.225647 }, "geometry": { "type": "Point", "coordinates": [ 911179.198184570414014, -505719.487507484853268 ] } },
{ "type": "Feature", "properties": { "GISJOIN": "G0100530", "GEOID": "01053", "STATEFP": "01", "COUNTYFP": "053", "STNAME": "Alabama", "COUNAME": "Escambia", "POPULATION": 38319.0, "LATITUDE": 31.088737, "LONGITUDE": -87.282053 }, "geometry": { "type": "Point", "coordinates": [ 828000.894123367383145, -678445.393608916550875 ] } },
{ "type": "Feature", "properties": { "GISJOIN": "G0100550", "GEOID": "01055", "STATEFP": "01", "COUNTYFP": "055", "STNAME": "Alabama", "COUNAME": "Etowah", "POPULATION": 104430.0, "LATITUDE": 34.013693, "LONGITUDE": -86.025393 }, "geometry": { "type": "Point", "coordinates": [ 912771.482410899712704, -342333.567579725757241 ] } },
{ "type": "Feature", "properties": { "GISJOIN": "G0100570", "GEOID": "01057", "STATEFP": "01", "COUNTYFP": "057", "STNAME": "Alabama", "COUNAME": "Fayette", "POPULATION": 17241.0, "LATITUDE": 33.726422, "LONGITUDE": -87.770355 }, "geometry": { "type": "Point", "coordinates": [ 756308.991264452692121, -389611.21845643222332 ] } },
{ "type": "Feature", "properties": { "GISJOIN": "G0100590", "GEOID": "01059", "STATEFP": "01", "COUNTYFP": "059", "STNAME": "Alabama", "COUNAME": "Franklin", "POPULATION": 31704.0, "LATITUDE": 34.460481, "LONGITUDE": -87.793594 }, "geometry": { "type": "Point", "coordinates": [ 747102.48840715456754, -308055.331119621172547 ] } },
{ "type": "Feature", "properties": { "GISJOIN": "G0100610", "GEOID": "01061", "STATEFP": "01", "COUNTYFP": "061", "STNAME": "Alabama", "COUNAME": "Geneva", "POPULATION": 26790.0, "LATITUDE": 31.09426, "LONGITUDE": -85.788849 }, "geometry": { "type": "Point", "coordinates": [ 969248.36694457300473, -663714.225025536492467 ] } },
{ "type": "Feature", "properties": { "GISJOIN": "G0100630", "GEOID": "01063", "STATEFP": "01", "COUNTYFP": "063", "STNAME": "Alabama", "COUNAME": "Greene", "POPULATION": 9045.0, "LATITUDE": 32.830505, "LONGITUDE": -87.924 }, "geometry": { "type": "Point", "coordinates": [ 750713.397109940066002, -490488.468219606205821 ] } },
{ "type": "Feature", "properties": { "GISJOIN": "G0100650", "GEOID": "01065", "STATEFP": "01", "COUNTYFP": "065", "STNAME": "Alabama", "COUNAME": "Hale", "POPULATION": 15760.0, "LATITUDE": 32.775804, "LONGITUDE": -87.626084 }, "geometry": { "type": "Point", "coordinates": [ 778873.137979269959033, -494170.992154680192471 ] } },
{ "type": "Feature", "properties": { "GISJOIN": "G0100670", "GEOID": "01067", "STATEFP": "01", "COUNTYFP": "067", "STNAME": "Alabama", "COUNAME": "Henry", "POPULATION": 17302.0, "LATITUDE": 31.478593, "LONGITUDE": -85.268828 }, "geometry": { "type": "Point", "coordinates": [ 1013585.430086035630666, -615783.430036192759871 ] } },
{ "type": "Feature", "properties": { "GISJOIN": "G0100690", "GEOID": "01069", "STATEFP": "01", "COUNTYFP": "069", "STNAME": "Alabama", "COUNAME": "Houston", "POPULATION": 101547.0, "LATITUDE": 31.20455, "LONGITUDE": -85.391221 }, "geometry": { "type": "Point", "coordinates": [ 1005470.745426629553549, -647387.770931594073772 ] } },
{ "type": "Feature", "properties": { "GISJOIN": "G0100710", "GEOID": "01071", "STATEFP": "01", "COUNTYFP": "071", "STNAME": "Alabama", "COUNAME": "Jackson", "POPULATION": 53227.0, "LATITUDE": 34.731984, "LONGITUDE": -85.938698 }, "geometry": { "type": "Point", "coordinates": [ 912188.596082523814403, -261635.924789102748036 ] } },
{ "type": "Feature", "properties": { "GISJOIN": "G0100730", "GEOID": "01073", "STATEFP": "01", "COUNTYFP": "073", "STNAME": "Alabama", "COUNAME": "Jefferson", "POPULATION": 658466.0, "LATITUDE": 33.518601, "LONGITUDE": -86.814688 }, "geometry": { "type": "Point", "coordinates": [ 846116.197059630183503, -404671.095431452617049 ] } },
{ "type": "Feature", "properties": { "GISJOIN": "G0100750", "GEOID": "01075", "STATEFP": "01", "COUNTYFP": "075", "STNAME": "Alabama", "COUNAME": "Lamar", "POPULATION": 14564.0, "LATITUDE": 33.762769, "LONGITUDE": -88.109649 }, "geometry": { "type": "Point", "coordinates": [ 724864.1477558381157, -388209.179383112117648 ] } },
{ "type": "Feature", "properties": { "GISJOIN": "G0100770", "GEOID": "01077", "STATEFP": "01", "COUNTYFP": "077", "STNAME": "Alabama", "COUNAME": "Lauderdale", "POPULATION": 92709.0, "LATITUDE": 34.866179, "LONGITUDE": -87.608759 }, "geometry": { "type": "Point", "coordinates": [ 759885.030002833460458, -261387.103137850761414 ] } },
{ "type": "Feature", "properties": { "GISJOIN": "G0100790", "GEOID": "01079", "STATEFP": "01", "COUNTYFP": "079", "STNAME": "Alabama", "COUNAME": "Lawrence", "POPULATION": 34339.0, "LATITUDE": 34.543683, "LONGITUDE": -87.272414 }, "geometry": { "type": "Point", "coordinates": [ 793567.429592219530605, -294563.396537749096751 ] } },
{ "type": "Feature", "properties": { "GISJOIN": "G0100810", "GEOID": "01081", "STATEFP": "01", "COUNTYFP": "081", "STNAME": "Alabama", "COUNAME": "Lee", "POPULATION": 140247.0, "LATITUDE": 32.588092, "LONGITUDE": -85.345833 }, "geometry": { "type": "Point", "coordinates": [ 992512.243091810727492, -493753.710600130259991 ] } },
{ "type": "Feature", "properties": { "GISJOIN": "G0100830", "GEOID": "01083", "STATEFP": "01", "COUNTYFP": "083", "STNAME": "Alabama", "COUNAME": "Limestone", "POPULATION": 82782.0, "LATITUDE": 34.815612, "LONGITUDE": -86.938972 }, "geometry": { "type": "Point", "coordinates": [ 820900.334386819624342, -261449.446564331650734 ] } },
{ "type": "Feature", "properties": { "GISJOIN": "G0100850", "GEOID": "01085", "STATEFP": "01", "COUNTYFP": "085", "STNAME": "Alabama", "COUNAME": "Lowndes", "POPULATION": 11299.0, "LATITUDE": 32.162415, "LONGITUDE": -86.618688 }, "geometry": { "type": "Point", "coordinates": [ 879025.696886118268594, -553483.825303845107555 ] } },
{ "type": "Feature", "properties": { "GISJOIN": "G0100870", "GEOID": "01087", "STATEFP": "01", "COUNTYFP": "087", "STNAME": "Alabama", "COUNAME": "Macon", "POPULATION": 21452.0, "LATITUDE": 32.425739, "LONGITUDE": -85.715007 }, "geometry": { "type": "Point", "coordinates": [ 960213.402540280250832, -515541.613617770373821 ] } },
{ "type": "Feature", "properties": { "GISJOIN": "G0100890", "GEOID": "01089", "STATEFP": "01", "COUNTYFP": "089", "STNAME": "Alabama", "COUNAME": "Madison", "POPULATION": 334811.0, "LATITUDE": 34.746392, "LONGITUDE": -86.613232 }, "geometry": { "type": "Point", "coordinates": [ 851080.539022124605253, -266290.495070099830627 ] } },
{ "type": "Feature", "properties": { "GISJOIN": "G0100910", "GEOID": "01091", "STATEFP": "01", "COUNTYFP": "091", "STNAME": "Alabama", "COUNAME": "Marengo", "POPULATION": 21027.0, "LATITUDE": 32.340479, "LONGITUDE": -87.800648 }, "geometry": { "type": "Point", "coordinates": [ 766860.932494436623529, -543955.393895165994763 ] } },
{ "type": "Feature", "properties": { "GISJOIN": "G0100930", "GEOID": "01093", "STATEFP": "01", "COUNTYFP": "093", "STNAME": "Alabama", "COUNAME": "Marion", "POPULATION": 30776.0, "LATITUDE": 34.111797, "LONGITUDE": -87.8743 }, "geometry": { "type": "Point", "coordinates": [ 743102.152123937616125, -347526.272871773689985 ] } },
{ "type": "Feature", "properties": { "GISJOIN": "G0100950", "GEOID": "01095", "STATEFP": "01", "COUNTYFP": "095", "STNAME": "Alabama", "COUNAME": "Marshall", "POPULATION": 93019.0, "LATITUDE": 34.311974, "LONGITUDE": -86.293279 }, "geometry": { "type": "Point", "coordinates": [ 884944.201176743721589, -311703.797163194045424 ] } },
{ "type": "Feature", "properties": { "GISJOIN": "G0100970", "GEOID": "01097", "STATEFP": "01", "COUNTYFP": "097", "STNAME": "Alabama", "COUNAME": "Mobile", "POPULATION": 412992.0, "LATITUDE": 30.683993, "LONGITUDE": -88.170637 }, "geometry": { "type": "Point", "coordinates": [ 747511.295533124939539, -730641.452263383194804 ] } },
{ "type": "Feature", "properties": { "GISJOIN": "G0100990", "GEOID": "01099", "STATEFP": "01", "COUNTYFP": "099", "STNAME": "Alabama", "COUNAME": "Monroe", "POPULATION": 23068.0, "LATITUDE": 31.505611, "LONGITUDE": -87.360894 }, "geometry": { "type": "Point", "coordinates": [ 816322.541446081362665, -632934.01654483191669 ] } },
{ "type": "Feature", "properties": { "GISJOIN": "G0101010", "GEOID": "01101", "STATEFP": "01", "COUNTYFP": "101", "STNAME": "Alabama", "COUNAME": "Montgomery", "POPULATION": 229363.0, "LATITUDE": 32.346175, "LONGITUDE": -86.243797 }, "geometry": { "type": "Point", "coordinates": [ 911932.60534807946533, -529571.732473602518439 ] } },
{ "type": "Feature", "properties": { "GISJOIN": "G0101030", "GEOID": "01103", "STATEFP": "01", "COUNTYFP": "103", "STNAME": "Alabama", "COUNAME": "Morgan", "POPULATION": 119490.0, "LATITUDE": 34.514252, "LONGITUDE": -86.930781 }, "geometry": { "type": "Point", "coordinates": [ 824851.906997769372538, -294931.215042622759938 ] } },
{ "type": "Feature", "properties": { "GISJOIN": "G0101050", "GEOID": "01105", "STATEFP": "01", "COUNTYFP": "105", "STNAME": "Alabama", "COUNAME": "Perry", "POPULATION": 10591.0, "LATITUDE": 32.581066, "LONGITUDE": -87.369219 }, "geometry": { "type": "Point", "coordinates": [ 804669.948571861954406, -513666.275962170213461 ] } },
{ "type": "Feature", "properties": { "GISJOIN": "G0101070", "GEOID": "01107", "STATEFP": "01", "COUNTYFP": "107", "STNAME": "Alabama", "COUNAME": "Pickens", "POPULATION": 19746.0, "LATITUDE": 33.292973, "LONGITUDE": -88.066472 }, "geometry": { "type": "Point", "coordinates": [ 733196.736669891513884, -440166.674949988722801 ] } },
{ "type": "Feature", "properties": { "GISJOIN": "G0101090", "GEOID": "01109", "STATEFP": "01", "COUNTYFP": "109", "STNAME": "Alabama", "COUNAME": "Pike", "POPULATION": 32899.0, "LATITUDE": 31.787277, "LONGITUDE": -85.948647 }, "geometry": { "type": "Point", "coordinates": [ 945994.185763370245695, -588627.340359652414918 ] } },
{ "type": "Feature", "properties": { "GISJOIN": "G0101110", "GEOID": "01111", "STATEFP": "01", "COUNTYFP": "111", "STNAME": "Alabama", "COUNAME": "Randolph", "POPULATION": 22913.0, "LATITUDE": 33.257607, "LONGITUDE": -85.427266 }, "geometry": { "type": "Point", "coordinates": [ 976663.031146605266258, -420352.75524003058672 ] } },
{ "type": "Feature", "properties": { "GISJOIN": "G0101130", "GEOID": "01113", "STATEFP": "01", "COUNTYFP": "113", "STNAME": "Alabama", "COUNAME": "Russell", "POPULATION": 52947.0, "LATITUDE": 32.421972, "LONGITUDE": -85.062843 }, "geometry": { "type": "Point", "coordinates": [ 1020887.088503675418906, -509161.355227641761303 ] } },
{ "type": "Feature", "properties": { "GISJOIN": "G0101150", "GEOID": "01115", "STATEFP": "01", "COUNTYFP": "115", "STNAME": "Alabama", "COUNAME": "St. Clair", "POPULATION": 83593.0, "LATITUDE": 33.660628, "LONGITUDE": -86.369107 }, "geometry": { "type": "Point", "coordinates": [ 885419.137318624882028, -384825.340965250506997 ] } },
{ "type": "Feature", "properties": { "GISJOIN": "G0101170", "GEOID": "01117", "STATEFP": "01", "COUNTYFP": "117", "STNAME": "Alabama", "COUNAME": "Shelby", "POPULATION": 195085.0, "LATITUDE": 33.290719, "LONGITUDE": -86.737978 }, "geometry": { "type": "Point", "coordinates": [ 855636.32663763128221, -429311.774523491039872 ] } },
{ "type": "Feature", "properties": { "GISJOIN": "G0101190", "GEOID": "01119", "STATEFP": "01", "COUNTYFP": "119", "STNAME": "Alabama", "COUNAME": "Sumter", "POPULATION": 13763.0, "LATITUDE": 32.57442, "LONGITUDE": -88.232646 }, "geometry": { "type": "Point", "coordinates": [ 724420.274511463474482, -521351.085543004795909 ] } },
{ "type": "Feature", "properties": { "GISJOIN": "G0101210", "GEOID": "01121", "STATEFP": "01", "COUNTYFP": "121", "STNAME": "Alabama", "COUNAME": "Talladega", "POPULATION": 82291.0, "LATITUDE": 33.372083, "LONGITUDE": -86.169238 }, "geometry": { "type": "Point", "coordinates": [ 907056.978284425684251, -414998.115337818861008 ] } },
{ "type": "Feature", "properties": { "GISJOIN": "G0101230", "GEOID": "01123", "STATEFP": "01", "COUNTYFP": "123", "STNAME": "Alabama", "COUNAME": "Tallapoosa", "POPULATION": 41616.0, "LATITUDE": 32.85306, "LONGITUDE": -85.864503 }, "geometry": { "type": "Point", "coordinates": [ 941236.001120723667555, -469649.170079609379172 ] } },
{ "type": "Feature", "properties": { "GISJOIN": "G0101250", "GEOID": "01125", "STATEFP": "01", "COUNTYFP": "125", "STNAME": "Alabama", "COUNAME": "Tuscaloosa", "POPULATION": 194656.0, "LATITUDE": 33.214154, "LONGITUDE": -87.520229 }, "geometry": { "type": "Point", "coordinates": [ 784333.576942322892137, -444572.282415987923741 ] } },
{ "type": "Feature", "properties": { "GISJOIN": "G0101270", "GEOID": "01127", "STATEFP": "01", "COUNTYFP": "127", "STNAME": "Alabama", "COUNAME": "Walker", "POPULATION": 67023.0, "LATITUDE": 33.834858, "LONGITUDE": -87.253922 }, "geometry": { "type": "Point", "coordinates": [ 802525.969465520931408, -373308.752887872979045 ] } },
{ "type": "Feature", "properties": { "GISJOIN": "G0101290", "GEOID": "01129", "STATEFP": "01", "COUNTYFP": "129", "STNAME": "Alabama", "COUNAME": "Washington", "POPULATION": 17581.0, "LATITUDE": 31.410368, "LONGITUDE": -88.18612 }, "geometry": { "type": "Point", "coordinates": [ 739401.453292511985637, -650250.317387936636806 ] } },
{ "type": "Feature", "properties": { "GISJOIN": "G0101310", "GEOID": "01131", "STATEFP": "01", "COUNTYFP": "131", "STNAME": "Alabama", "COUNAME": "Wilcox", "POPULATION": 11670.0, "LATITUDE": 31.999753, "LONGITUDE": -87.380407 }, "geometry": { "type": "Point", "coordinates": [ 809499.204536993172951, -578295.88026393391192 ] } },
{ "type": "Feature", "properties": { "GISJOIN": "G0101330", "GEOID": "01133", "STATEFP": "01", "COUNTYFP": "133", "STNAME": "Alabama", "COUNAME": "Winston", "POPULATION": 24484.0, "LATITUDE": 34.163824, "LONGITUDE": -87.415693 }, "geometry": { "type": "Point", "coordinates": [ 784406.487006418057717, -338047.57008657976985 ] } },
{ "type": "Feature", "properties": { "GISJOIN": "G0200130", "GEOID": "02013", "STATEFP": "02", "COUNTYFP": "013", "STNAME": "Alaska", "COUNAME": "Aleutians East", "POPULATION": 3141.0, "LATITUDE": 54.860151, "LONGITUDE": -162.901536 }, "geometry": { "type": "Point", "coordinates": [ -4147044.937349505256861, 3438195.411662504076958 ] } },
{ "type": "Feature", "properties": { "GISJOIN": "G0200160", "GEOID": "02016", "STATEFP": "02", "COUNTYFP": "016", "STNAME": "Alaska", "COUNAME": "Aleutians West", "POPULATION": 5561.0, "LATITUDE": 54.023571, "LONGITUDE": -168.292885 }, "geometry": { "type": "Point", "coordinates": [ -4478653.679739201441407, 3616730.407614969648421 ] } },
{ "type": "Feature", "properties": { "GISJOIN": "G0200200", "GEOID": "02020", "STATEFP": "02", "COUNTYFP": "020", "STNAME": "Alaska", "COUNAME": "Anchorage", "POPULATION": 291826.0, "LATITUDE": 61.192232, "LONGITUDE": -149.793182 }, "geometry": { "type": "Point", "coordinates": [ -3087077.720615760423243, 3463705.469829061068594 ] } },
{ "type": "Feature", "properties": { "GISJOIN": "G0200500", "GEOID": "02050", "STATEFP": "02", "COUNTYFP": "050", "STNAME": "Alaska", "COUNAME": "Bethel", "POPULATION": 17013.0, "LATITUDE": 60.679946, "LONGITUDE": -162.151263 }, "geometry": { "type": "Point", "coordinates": [ -3723642.271684098057449, 3866003.616297060623765 ] } },
{ "type": "Feature", "properties": { "GISJOIN": "G0200600", "GEOID": "02060", "STATEFP": "02", "COUNTYFP": "060", "STNAME": "Alaska", "COUNAME": "Bristol Bay", "POPULATION": 997.0, "LATITUDE": 58.735464, "LONGITUDE": -156.834047 }, "geometry": { "type": "Point", "coordinates": [ -3585830.47354920534417, 3507360.326839192770422 ] } },
{ "type": "Feature", "properties": { "GISJOIN": "G0200680", "GEOID": "02068", "STATEFP": "02", "COUNTYFP": "068", "STNAME": "Alaska", "COUNAME": "Denali", "POPULATION": 1826.0, "LATITUDE": 63.882845, "LONGITUDE": -149.032949 }, "geometry": { "type": "Point", "coordinates": [ -2910056.981017723679543, 3660327.913037002086639 ] } },
{ "type": "Feature", "properties": { "GISJOIN": "G0200700", "GEOID": "02070", "STATEFP": "02", "COUNTYFP": "070", "STNAME": "Alaska", "COUNAME": "Dillingham", "POPULATION": 4847.0, "LATITUDE": 59.136256, "LONGITUDE": -158.718472 }, "geometry": { "type": "Point", "coordinates": [ -3655557.148591123055667, 3611665.986487178131938 ] } },
{ "type": "Feature", "properties": { "GISJOIN": "G0200900", "GEOID": "02090", "STATEFP": "02", "COUNTYFP": "090", "STNAME": "Alaska", "COUNAME": "Fairbanks North Star", "POPULATION": 97581.0, "LATITUDE": 64.831552, "LONGITUDE": -147.624018 }, "geometry": { "type": "Point", "coordinates": [ -2794584.70019667269662, 3693947.205651797354221 ] } },
{ "type": "Feature", "properties": { "GISJOIN": "G0201000", "GEOID": "02100", "STATEFP": "02", "COUNTYFP": "100", "STNAME": "Alaska", "COUNAME": "Haines", "POPULATION": 2508.0, "LATITUDE": 59.264125, "LONGITUDE": -135.559897 }, "geometry": { "type": "Point", "coordinates": [ -2405732.845740004908293, 2880688.572845852933824 ] } },
{ "type": "Feature", "properties": { "GISJOIN": "G0201050", "GEOID": "02105", "STATEFP": "02", "COUNTYFP": "105", "STNAME": "Alaska", "COUNAME": "Hoonah-Angoon", "POPULATION": 2150.0, "LATITUDE": 58.078282, "LONGITUDE": -135.384163 }, "geometry": { "type": "Point", "coordinates": [ -2444463.296861349139363, 2765322.800895964726806 ] } },
{ "type": "Feature", "properties": { "GISJOIN": "G0201100", "GEOID": "02110", "STATEFP": "02", "COUNTYFP": "110", "STNAME": "Alaska", "COUNAME": "Juneau", "POPULATION": 31275.0, "LATITUDE": 58.358516, "LONGITUDE": -134.530605 }, "geometry": { "type": "Point", "coordinates": [ -2383101.986055098939687, 2770043.530975351110101 ] } },
{ "type": "Feature", "properties": { "GISJOIN": "G0201220", "GEOID": "02122", "STATEFP": "02", "COUNTYFP": "122", "STNAME": "Alaska", "COUNAME": "Kenai Peninsula", "POPULATION": 55400.0, "LATITUDE": 60.292592, "LONGITUDE": -151.064475 }, "geometry": { "type": "Point", "coordinates": [ -3200836.916528095025569, 3430484.286744092591107 ] } },
{ "type": "Feature", "properties": { "GISJOIN": "G0201300", "GEOID": "02130", "STATEFP": "02", "COUNTYFP": "130", "STNAME": "Alaska", "COUNAME": "Ketchikan Gateway", "POPULATION": 13477.0, "LATITUDE": 55.367858, "LONGITUDE": -131.678527 }, "geometry": { "type": "Point", "coordinates": [ -2329625.029409825801849, 2411285.196738438680768 ] } },
{ "type": "Feature", "properties": { "GISJOIN": "G0201500", "GEOID": "02150", "STATEFP": "02", "COUNTYFP": "150", "STNAME": "Alaska", "COUNAME": "Kodiak Island", "POPULATION": 13592.0, "LATITUDE": 57.779137, "LONGITUDE": -152.460881 }, "geometry": { "type": "Point", "coordinates": [ -3415512.724834039341658, 3266142.722812902182341 ] } },
{ "type": "Feature", "properties": { "GISJOIN": "G0201640", "GEOID": "02164", "STATEFP": "02", "COUNTYFP": "164", "STNAME": "Alaska", "COUNAME": "Lake and Peninsula", "POPULATION": 1631.0, "LATITUDE": 58.557351, "LONGITUDE": -156.371652 }, "geometry": { "type": "Point", "coordinates": [ -3573165.742242471314967, 3475314.25029116962105 ] } },
{ "type": "Feature", "properties": { "GISJOIN": "G0201700", "GEOID": "02170", "STATEFP": "02", "COUNTYFP": "170", "STNAME": "Alaska", "COUNAME": "Matanuska-Susitna", "POPULATION": 88995.0, "LATITUDE": 61.611281, "LONGITUDE": -149.421961 }, "geometry": { "type": "Point", "coordinates": [ -3046044.879591754637659, 3486657.470347442664206 ] } },
{ "type": "Feature", "properties": { "GISJOIN": "G0201800", "GEOID": "02180", "STATEFP": "02", "COUNTYFP": "180", "STNAME": "Alaska", "COUNAME": "Nome", "POPULATION": 9492.0, "LATITUDE": 64.457026, "LONGITUDE": -165.295491 }, "geometry": { "type": "Point", "coordinates": [ -3625374.126123320776969, 4264318.941060142591596 ] } },
{ "type": "Feature", "properties": { "GISJOIN": "G0201850", "GEOID": "02185", "STATEFP": "02", "COUNTYFP": "185", "STNAME": "Alaska", "COUNAME": "North Slope", "POPULATION": 9430.0, "LATITUDE": 70.522779, "LONGITUDE": -154.862085 }, "geometry": { "type": "Point", "coordinates": [ -2850915.944223674479872, 4323559.655722942203283 ] } },
{ "type": "Feature", "properties": { "GISJOIN": "G0201880", "GEOID": "02188", "STATEFP": "02", "COUNTYFP": "188", "STNAME": "Alaska", "COUNAME": "Northwest Arctic", "POPULATION": 7523.0, "LATITUDE": 66.943735, "LONGITUDE": -161.638185 }, "geometry": { "type": "Point", "coordinates": [ -3321839.581313227768987, 4302944.94641026481986 ] } },
{ "type": "Feature", "properties": { "GISJOIN": "G0201950", "GEOID": "02195", "STATEFP": "02", "COUNTYFP": "195", "STNAME": "Alaska", "COUNAME": "Petersburg", "POPULATION": 3815.0, "LATITUDE": 56.812712, "LONGITUDE": -133.115025 }, "geometry": { "type": "Point", "coordinates": [ -2360991.893777325749397, 2587351.348790686577559 ] } },
{ "type": "Feature", "properties": { "GISJOIN": "G0201980", "GEOID": "02198", "STATEFP": "02", "COUNTYFP": "198", "STNAME": "Alaska", "COUNAME": "Prince of Wales-Hyder", "POPULATION": 5559.0, "LATITUDE": 55.448164, "LONGITUDE": -132.560842 }, "geometry": { "type": "Point", "coordinates": [ -2381220.726463317871094, 2441025.568222670815885 ] } },
{ "type": "Feature", "properties": { "GISJOIN": "G0202200", "GEOID": "02220", "STATEFP": "02", "COUNTYFP": "220", "STNAME": "Alaska", "COUNAME": "Sitka", "POPULATION": 8881.0, "LATITUDE": 57.062746, "LONGITUDE": -135.337171 }, "geometry": { "type": "Point", "coordinates": [ -2483961.823751940391958, 2667949.58651362080127 ] } },
{ "type": "Feature", "properties": { "GISJOIN": "G0202300", "GEOID": "02230", "STATEFP": "02", "COUNTYFP": "230", "STNAME": "Alaska", "COUNAME": "Skagway", "POPULATION": 968.0, "LATITUDE": 59.464536, "LONGITUDE": -135.311501 }, "geometry": { "type": "Point", "coordinates": [ -2383336.159561258740723, 2893020.181677328422666 ] } },
{ "type": "Feature", "properties": { "GISJOIN": "G0202400", "GEOID": "02240", "STATEFP": "02", "COUNTYFP": "240", "STNAME": "Alaska", "COUNAME": "Southeast Fairbanks", "POPULATION": 7029.0, "LATITUDE": 63.856185, "LONGITUDE": -144.687024 }, "geometry": { "type": "Point", "coordinates": [ -2695139.166462687775493, 3529967.814106352627277 ] } },
{ "type": "Feature", "properties": { "GISJOIN": "G0202610", "GEOID": "02261", "STATEFP": "02", "COUNTYFP": "261", "STNAME": "Alaska", "COUNAME": "Valdez-Cordova", "POPULATION": 9636.0, "LATITUDE": 61.26149, "LONGITUDE": -145.882504 }, "geometry": { "type": "Point", "coordinates": [ -2881160.387131576426327, 3346745.962669361382723 ] } },
{ "type": "Feature", "properties": { "GISJOIN": "G0202700", "GEOID": "02270", "STATEFP": "02", "COUNTYFP": "270", "STNAME": "Alaska", "COUNAME": "Wade Hampton", "POPULATION": 7459.0, "LATITUDE": 62.089902, "LONGITUDE": -164.314723 }, "geometry": { "type": "Point", "coordinates": [ -3732514.660303054377437, 4056601.554111950099468 ] } },
{ "type": "Feature", "properties": { "GISJOIN": "G0202750", "GEOID": "02275", "STATEFP": "02", "COUNTYFP": "275", "STNAME": "Alaska", "COUNAME": "Wrangell", "POPULATION": 2369.0, "LATITUDE": 56.385821, "LONGITUDE": -132.310837 }, "geometry": { "type": "Point", "coordinates": [ -2329001.521359330508858, 2526211.16376706585288 ] } },
{ "type": "Feature", "properties": { "GISJOIN": "G0202820", "GEOID": "02282", "STATEFP": "02", "COUNTYFP": "282", "STNAME": "Alaska", "COUNAME": "Yakutat", "POPULATION": 662.0, "LATITUDE": 59.547975, "LONGITUDE": -139.724878 }, "geometry": { "type": "Point", "coordinates": [ -2629057.732148751616478, 3017081.889594544656575 ] } },
{ "type": "Feature", "properties": { "GISJOIN": "G0202900", "GEOID": "02290", "STATEFP": "02", "COUNTYFP": "290", "STNAME": "Alaska", "COUNAME": "Yukon-Koyukuk", "POPULATION": 5588.0, "LATITUDE": 65.010262, "LONGITUDE": -152.550423 }, "geometry": { "type": "Point", "coordinates": [ -3021340.318602351937443, 3858711.212735379114747 ] } },
{ "type": "Feature", "properties": { "GISJOIN": "G0400010", "GEOID": "04001", "STATEFP": "04", "COUNTYFP": "001", "STNAME": "Arizona", "COUNAME": "Apache", "POPULATION": 71518.0, "LATITUDE": 35.577687, "LONGITUDE": -109.41484 }, "geometry": { "type": "Point", "coordinates": [ -1201148.692600032314658, -130415.000541772693396 ] } },
{ "type": "Feature", "properties": { "GISJOIN": "G0400030", "GEOID": "04003", "STATEFP": "04", "COUNTYFP": "003", "STNAME": "Arizona", "COUNAME": "Cochise", "POPULATION": 131346.0, "LATITUDE": 31.607357, "LONGITUDE": -110.063053 }, "geometry": { "type": "Point", "coordinates": [ -1324150.393353118095547, -560583.442038461565971 ] } },
{ "type": "Feature", "properties": { "GISJOIN": "G0400050", "GEOID": "04005", "STATEFP": "04", "COUNTYFP": "005", "STNAME": "Arizona", "COUNAME": "Coconino", "POPULATION": 134421.0, "LATITUDE": 35.514426, "LONGITUDE": -111.590056 }, "geometry": { "type": "Point", "coordinates": [ -1395444.563128238078207, -107696.730517670512199 ] } },
{ "type": "Feature", "properties": { "GISJOIN": "G0400070", "GEOID": "04007", "STATEFP": "04", "COUNTYFP": "007", "STNAME": "Arizona", "COUNAME": "Gila", "POPULATION": 53597.0, "LATITUDE": 33.82356, "LONGITUDE": -111.007494 }, "geometry": { "type": "Point", "coordinates": [ -1373483.207638564985245, -302851.068495623767376 ] } },
{ "type": "Feature", "properties": { "GISJOIN": "G0400090", "GEOID": "04009", "STATEFP": "04", "COUNTYFP": "009", "STNAME": "Arizona", "COUNAME": "Graham", "POPULATION": 37220.0, "LATITUDE": 32.86733, "LONGITUDE": -109.812181 }, "geometry": { "type": "Point", "coordinates": [ -1280357.038113359827548, -425088.958667250350118 ] } },
{ "type": "Feature", "properties": { "GISJOIN": "G0400110", "GEOID": "04011", "STATEFP": "04", "COUNTYFP": "011", "STNAME": "Arizona", "COUNAME": "Greenlee", "POPULATION": 8437.0, "LATITUDE": 32.970402, "LONGITUDE": -109.248712 }, "geometry": { "type": "Point", "coordinates": [ -1226872.605827388120815, -421136.60176900960505 ] } },
{ "type": "Feature", "properties": { "GISJOIN": "G0400120", "GEOID": "04012", "STATEFP": "04", "COUNTYFP": "012", "STNAME": "Arizona", "COUNAME": "La Paz", "POPULATION": 20489.0, "LATITUDE": 33.908361, "LONGITUDE": -114.172146 }, "geometry": { "type": "Point", "coordinates": [ -1658084.542088845511898, -243037.208287028595805 ] } },
{ "type": "Feature", "properties": { "GISJOIN": "G0400130", "GEOID": "04013", "STATEFP": "04", "COUNTYFP": "013", "STNAME": "Arizona", "COUNAME": "Maricopa", "POPULATION": 3817117.0, "LATITUDE": 33.493403, "LONGITUDE": -112.04143 }, "geometry": { "type": "Point", "coordinates": [ -1473433.749861760996282, -323754.750094514340162 ] } },
{ "type": "Feature", "properties": { "GISJOIN": "G0400150", "GEOID": "04015", "STATEFP": "04", "COUNTYFP": "015", "STNAME": "Arizona", "COUNAME": "Mohave", "POPULATION": 200186.0, "LATITUDE": 35.069679, "LONGITUDE": -114.249634 }, "geometry": { "type": "Point", "coordinates": [ -1640282.990951532730833, -114208.032989431172609 ] } },
{ "type": "Feature", "properties": { "GISJOIN": "G0400170", "GEOID": "04017", "STATEFP": "04", "COUNTYFP": "017", "STNAME": "Arizona", "COUNAME": "Navajo", "POPULATION": 107449.0, "LATITUDE": 34.893625, "LONGITUDE": -110.211155 }, "geometry": { "type": "Point", "coordinates": [ -1283337.724564920645207, -195753.014011131599545 ] } },
{ "type": "Feature", "properties": { "GISJOIN": "G0400190", "GEOID": "04019", "STATEFP": "04", "COUNTYFP": "019", "STNAME": "Arizona", "COUNAME": "Pima", "POPULATION": 980263.0, "LATITUDE": 32.216707, "LONGITUDE": -110.96001 }, "geometry": { "type": "Point", "coordinates": [ -1397286.770070084370673, -480647.72377685457468 ] } },
{ "type": "Feature", "properties": { "GISJOIN": "G0400210", "GEOID": "04021", "STATEFP": "04", "COUNTYFP": "021", "STNAME": "Arizona", "COUNAME": "Pinal", "POPULATION": 375770.0, "LATITUDE": 33.060133, "LONGITUDE": -111.588364 }, "geometry": { "type": "Point", "coordinates": [ -1440097.476772586582229, -378405.353200241923332 ] } },
{ "type": "Feature", "properties": { "GISJOIN": "G0400230", "GEOID": "04023", "STATEFP": "04", "COUNTYFP": "023", "STNAME": "Arizona", "COUNAME": "Santa Cruz", "POPULATION": 47420.0, "LATITUDE": 31.434733, "LONGITUDE": -110.943195 }, "geometry": { "type": "Point", "coordinates": [ -1409368.344485861482099, -566918.695042204111814 ] } },
{ "type": "Feature", "properties": { "GISJOIN": "G0400250", "GEOID": "04025", "STATEFP": "04", "COUNTYFP": "025", "STNAME": "Arizona", "COUNAME": "Yavapai", "POPULATION": 211033.0, "LATITUDE": 34.629014, "LONGITUDE": -112.267767 }, "geometry": { "type": "Point", "coordinates": [ -1472400.663317063357681, -195154.149597531184554 ] } },
{ "type": "Feature", "properties": { "GISJOIN": "G0400270", "GEOID": "04027", "STATEFP": "04", "COUNTYFP": "027", "STNAME": "Arizona", "COUNAME": "Yuma", "POPULATION": 195751.0, "LATITUDE": 32.65004, "LONGITUDE": -114.598663 }, "geometry": { "type": "Point", "coordinates": [ -1723828.17584780510515, -373314.826735123991966 ] } },
{ "type": "Feature", "properties": { "GISJOIN": "G0500010", "GEOID": "05001", "STATEFP": "05", "COUNTYFP": "001", "STNAME": "Arkansas", "COUNAME": "Arkansas", "POPULATION": 19019.0, "LATITUDE": 34.405316, "LONGITUDE": -91.461284 }, "geometry": { "type": "Point", "coordinates": [ 413851.087203680712264, -336616.56703138910234 ] } },
{ "type": "Feature", "properties": { "GISJOIN": "G0500030", "GEOID": "05003", "STATEFP": "05", "COUNTYFP": "003", "STNAME": "Arkansas", "COUNAME": "Ashley", "POPULATION": 21853.0, "LATITUDE": 33.179373, "LONGITUDE": -91.87136 }, "geometry": { "type": "Point", "coordinates": [ 382432.747123890731018, -475162.620816666632891 ] } },
{ "type": "Feature", "properties": { "GISJOIN": "G0500050", "GEOID": "05005", "STATEFP": "05", "COUNTYFP": "005", "STNAME": "Arkansas", "COUNAME": "Baxter", "POPULATION": 41513.0, "LATITUDE": 36.332208, "LONGITUDE": -92.383933 }, "geometry": { "type": "Point", "coordinates": [ 321563.573608932434581, -124724.184585724025965 ] } },
{ "type": "Feature", "properties": { "GISJOIN": "G0500070", "GEOID": "05007", "STATEFP": "05", "COUNTYFP": "007", "STNAME": "Arkansas", "COUNAME": "Benton", "POPULATION": 221339.0, "LATITUDE": 36.337348, "LONGITUDE": -94.230543 }, "geometry": { "type": "Point", "coordinates": [ 157369.483852037141332, -128801.935129960998893 ] } },
{ "type": "Feature", "properties": { "GISJOIN": "G0500090", "GEOID": "05009", "STATEFP": "05", "COUNTYFP": "009", "STNAME": "Arkansas", "COUNAME": "Boone", "POPULATION": 36903.0, "LATITUDE": 36.267871, "LONGITUDE": -93.099344 }, "geometry": { "type": "Point", "coordinates": [ 258186.808547516237013, -134108.328401401638985 ] } },
{ "type": "Feature", "properties": { "GISJOIN": "G0500110", "GEOID": "05011", "STATEFP": "05", "COUNTYFP": "011", "STNAME": "Arkansas", "COUNAME": "Bradley", "POPULATION": 11508.0, "LATITUDE": 33.569321, "LONGITUDE": -92.103312 }, "geometry": { "type": "Point", "coordinates": [ 359174.699887619703077, -432563.422409126535058 ] } },
{ "type": "Feature", "properties": { "GISJOIN": "G0500130", "GEOID": "05013", "STATEFP": "05", "COUNTYFP": "013", "STNAME": "Arkansas", "COUNAME": "Calhoun", "POPULATION": 5368.0, "LATITUDE": 33.591116, "LONGITUDE": -92.495555 }, "geometry": { "type": "Point", "coordinates": [ 322947.51103977143066, -431538.554288076236844 ] } },
{ "type": "Feature", "properties": { "GISJOIN": "G0500150", "GEOID": "05015", "STATEFP": "05", "COUNTYFP": "015", "STNAME": "Arkansas", "COUNAME": "Carroll", "POPULATION": 27446.0, "LATITUDE": 36.373069, "LONGITUDE": -93.570816 }, "geometry": { "type": "Point", "coordinates": [ 215930.05143014024361, -123506.036621345207095 ] } },
{ "type": "Feature", "properties": { "GISJOIN": "G0500170", "GEOID": "05017", "STATEFP": "05", "COUNTYFP": "017", "STNAME": "Arkansas", "COUNAME": "Chicot", "POPULATION": 11800.0, "LATITUDE": 33.32186, "LONGITUDE": -91.318378 }, "geometry": { "type": "Point", "coordinates": [ 432832.70260499464348, -456899.895738149061799 ] } },
{ "type": "Feature", "properties": { "GISJOIN": "G0500190", "GEOID": "05019", "STATEFP": "05", "COUNTYFP": "019", "STNAME": "Arkansas", "COUNAME": "Clark", "POPULATION": 22995.0, "LATITUDE": 34.094705, "LONGITUDE": -93.124856 }, "geometry": { "type": "Point", "coordinates": [ 263272.641329158388544, -377242.248785968869925 ] } },
{ "type": "Feature", "properties": { "GISJOIN": "G0500210", "GEOID": "05021", "STATEFP": "05", "COUNTYFP": "021", "STNAME": "Arkansas", "COUNAME": "Clay", "POPULATION": 16083.0, "LATITUDE": 36.370695, "LONGITUDE": -90.372418 }, "geometry": { "type": "Point", "coordinates": [ 500013.375842995184939, -111722.864978296682239 ] } },
{ "type": "Feature", "properties": { "GISJOIN": "G0500230", "GEOID": "05023", "STATEFP": "05", "COUNTYFP": "023", "STNAME": "Arkansas", "COUNAME": "Cleburne", "POPULATION": 25970.0, "LATITUDE": 35.510232, "LONGITUDE": -92.037481 }, "geometry": { "type": "Point", "coordinates": [ 356191.853518784046173, -215456.909444767981768 ] } },
{ "type": "Feature", "properties": { "GISJOIN": "G0500250", "GEOID": "05025", "STATEFP": "05", "COUNTYFP": "025", "STNAME": "Arkansas", "COUNAME": "Cleveland", "POPULATION": 8689.0, "LATITUDE": 33.914989, "LONGITUDE": -92.139146 }, "geometry": { "type": "Point", "coordinates": [ 354305.063848219520878, -394111.891166532412171 ] } },
{ "type": "Feature", "properties": { "GISJOIN": "G0500270", "GEOID": "05027", "STATEFP": "05", "COUNTYFP": "027", "STNAME": "Arkansas", "COUNAME": "Columbia", "POPULATION": 24552.0, "LATITUDE": 33.258045, "LONGITUDE": -93.247459 }, "geometry": { "type": "Point", "coordinates": [ 254755.967547667707549, -470998.701181394979358 ] } },
{ "type": "Feature", "properties": { "GISJOIN": "G0500290", "GEOID": "05029", "STATEFP": "05", "COUNTYFP": "029", "STNAME": "Arkansas", "COUNAME": "Conway", "POPULATION": 21273.0, "LATITUDE": 35.214487, "LONGITUDE": -92.70416 }, "geometry": { "type": "Point", "coordinates": [ 297438.111260074540041, -250826.699258720502257 ] } },
{ "type": "Feature", "properties": { "GISJOIN": "G0500310", "GEOID": "05031", "STATEFP": "05", "COUNTYFP": "031", "STNAME": "Arkansas", "COUNAME": "Craighead", "POPULATION": 96443.0, "LATITUDE": 35.835235, "LONGITUDE": -90.669325 }, "geometry": { "type": "Point", "coordinates": [ 477023.419034275226295, -173116.137663919478655 ] } },
{ "type": "Feature", "properties": { "GISJOIN": "G0500330", "GEOID": "05033", "STATEFP": "05", "COUNTYFP": "033", "STNAME": "Arkansas", "COUNAME": "Crawford", "POPULATION": 61948.0, "LATITUDE": 35.496882, "LONGITUDE": -94.28436 }, "geometry": { "type": "Point", "coordinates": [ 154282.61469997628592, -222985.603759856894612 ] } },
{ "type": "Feature", "properties": { "GISJOIN": "G0500350", "GEOID": "05035", "STATEFP": "05", "COUNTYFP": "035", "STNAME": "Arkansas", "COUNAME": "Crittenden", "POPULATION": 50902.0, "LATITUDE": 35.17736, "LONGITUDE": -90.217261 }, "geometry": { "type": "Point", "coordinates": [ 521907.338162253203336, -244255.85689346306026 ] } },
{ "type": "Feature", "properties": { "GISJOIN": "G0500370", "GEOID": "05037", "STATEFP": "05", "COUNTYFP": "037", "STNAME": "Arkansas", "COUNAME": "Cross", "POPULATION": 17870.0, "LATITUDE": 35.252833, "LONGITUDE": -90.775307 }, "geometry": { "type": "Point", "coordinates": [ 471131.580969706585165, -238739.497967602685094 ] } },
{ "type": "Feature", "properties": { "GISJOIN": "G0500390", "GEOID": "05039", "STATEFP": "05", "COUNTYFP": "039", "STNAME": "Arkansas", "COUNAME": "Dallas", "POPULATION": 8116.0, "LATITUDE": 33.869213, "LONGITUDE": -92.527123 }, "geometry": { "type": "Point", "coordinates": [ 318904.589634063129779, -400597.434622822329402 ] } },
{ "type": "Feature", "properties": { "GISJOIN": "G0500410", "GEOID": "05041", "STATEFP": "05", "COUNTYFP": "041", "STNAME": "Arkansas", "COUNAME": "Desha", "POPULATION": 13008.0, "LATITUDE": 33.773838, "LONGITUDE": -91.417485 }, "geometry": { "type": "Point", "coordinates": [ 421243.788225637283176, -406923.371712971478701 ] } },
{ "type": "Feature", "properties": { "GISJOIN": "G0500430", "GEOID": "05043", "STATEFP": "05", "COUNTYFP": "043", "STNAME": "Arkansas", "COUNAME": "Drew", "POPULATION": 18509.0, "LATITUDE": 33.6274, "LONGITUDE": -91.781779 }, "geometry": { "type": "Point", "coordinates": [ 388505.214233901991975, -424817.123065067455173 ] } },
{ "type": "Feature", "properties": { "GISJOIN": "G0500450", "GEOID": "05045", "STATEFP": "05", "COUNTYFP": "045", "STNAME": "Arkansas", "COUNAME": "Faulkner", "POPULATION": 113237.0, "LATITUDE": 35.104918, "LONGITUDE": -92.405359 }, "geometry": { "type": "Point", "coordinates": [ 324855.204199894506019, -262101.469722097739577 ] } },
{ "type": "Feature", "properties": { "GISJOIN": "G0500470", "GEOID": "05047", "STATEFP": "05", "COUNTYFP": "047", "STNAME": "Arkansas", "COUNAME": "Franklin", "POPULATION": 18125.0, "LATITUDE": 35.446102, "LONGITUDE": -93.885464 }, "geometry": { "type": "Point", "coordinates": [ 190275.296375783829717, -227945.402454160153866 ] } },
{ "type": "Feature", "properties": { "GISJOIN": "G0500490", "GEOID": "05049", "STATEFP": "05", "COUNTYFP": "049", "STNAME": "Arkansas", "COUNAME": "Fulton", "POPULATION": 12245.0, "LATITUDE": 36.376787, "LONGITUDE": -91.764934 }, "geometry": { "type": "Point", "coordinates": [ 376352.657690071268007, -117462.177516743540764 ] } },
{ "type": "Feature", "properties": { "GISJOIN": "G0500510", "GEOID": "05051", "STATEFP": "05", "COUNTYFP": "051", "STNAME": "Arkansas", "COUNAME": "Garland", "POPULATION": 96024.0, "LATITUDE": 34.505811, "LONGITUDE": -93.081852 }, "geometry": { "type": "Point", "coordinates": [ 265798.12846254784381, -331182.521920245140791 ] } },
{ "type": "Feature", "properties": { "GISJOIN": "G0500530", "GEOID": "05053", "STATEFP": "05", "COUNTYFP": "053", "STNAME": "Arkansas", "COUNAME": "Grant", "POPULATION": 17853.0, "LATITUDE": 34.309174, "LONGITUDE": -92.412714 }, "geometry": { "type": "Point", "coordinates": [ 327549.747121170919854, -351067.550559513270855 ] } },
{ "type": "Feature", "properties": { "GISJOIN": "G0500550", "GEOID": "05055", "STATEFP": "05", "COUNTYFP": "055", "STNAME": "Arkansas", "COUNAME": "Greene", "POPULATION": 42090.0, "LATITUDE": 36.07312, "LONGITUDE": -90.523016 }, "geometry": { "type": "Point", "coordinates": [ 488567.425979526946321, -145777.761538468301296 ] } },
{ "type": "Feature", "properties": { "GISJOIN": "G0500570", "GEOID": "05057", "STATEFP": "05", "COUNTYFP": "057", "STNAME": "Arkansas", "COUNAME": "Hempstead", "POPULATION": 22609.0, "LATITUDE": 33.699647, "LONGITUDE": -93.623587 }, "geometry": { "type": "Point", "coordinates": [ 218718.889773099304875, -422635.366450928151608 ] } },
{ "type": "Feature", "properties": { "GISJOIN": "G0500590", "GEOID": "05059", "STATEFP": "05", "COUNTYFP": "059", "STNAME": "Arkansas", "COUNAME": "Hot Spring", "POPULATION": 32923.0, "LATITUDE": 34.353464, "LONGITUDE": -92.894595 }, "geometry": { "type": "Point", "coordinates": [ 283405.006964795757085, -347667.796150470152497 ] } },
{ "type": "Feature", "properties": { "GISJOIN": "G0500610", "GEOID": "05061", "STATEFP": "05", "COUNTYFP": "061", "STNAME": "Arkansas", "COUNAME": "Howard", "POPULATION": 13789.0, "LATITUDE": 33.983198, "LONGITUDE": -93.910184 }, "geometry": { "type": "Point", "coordinates": [ 191649.131683839019388, -391580.222447130829096 ] } },
{ "type": "Feature", "properties": { "GISJOIN": "G0500630", "GEOID": "05063", "STATEFP": "05", "COUNTYFP": "063", "STNAME": "Arkansas", "COUNAME": "Independence", "POPULATION": 36647.0, "LATITUDE": 35.749801, "LONGITUDE": -91.607539 }, "geometry": { "type": "Point", "coordinates": [ 393574.094855898874812, -186966.891558969393373 ] } },
{ "type": "Feature", "properties": { "GISJOIN": "G0500650", "GEOID": "05065", "STATEFP": "05", "COUNTYFP": "065", "STNAME": "Arkansas", "COUNAME": "Izard", "POPULATION": 13696.0, "LATITUDE": 36.120217, "LONGITUDE": -91.908429 }, "geometry": { "type": "Point", "coordinates": [ 364845.71224894997431, -146730.603720266371965 ] } },
{ "type": "Feature", "properties": { "GISJOIN": "G0500670", "GEOID": "05067", "STATEFP": "05", "COUNTYFP": "067", "STNAME": "Arkansas", "COUNAME": "Jackson", "POPULATION": 17997.0, "LATITUDE": 35.621102, "LONGITUDE": -91.246233 }, "geometry": { "type": "Point", "coordinates": [ 426642.369320601574145, -199799.616311013698578 ] } },
{ "type": "Feature", "properties": { "GISJOIN": "G0500690", "GEOID": "05069", "STATEFP": "05", "COUNTYFP": "069", "STNAME": "Arkansas", "COUNAME": "Jefferson", "POPULATION": 77435.0, "LATITUDE": 34.233473, "LONGITUDE": -92.041179 }, "geometry": { "type": "Point", "coordinates": [ 361807.79628527519526, -358176.406310519203544 ] } },
{ "type": "Feature", "properties": { "GISJOIN": "G0500710", "GEOID": "05071", "STATEFP": "05", "COUNTYFP": "071", "STNAME": "Arkansas", "COUNAME": "Johnson", "POPULATION": 25540.0, "LATITUDE": 35.475272, "LONGITUDE": -93.475517 }, "geometry": { "type": "Point", "coordinates": [ 227069.441765729454346, -223781.090877816081047 ] } },
{ "type": "Feature", "properties": { "GISJOIN": "G0500730", "GEOID": "05073", "STATEFP": "05", "COUNTYFP": "073", "STNAME": "Arkansas", "COUNAME": "Lafayette", "POPULATION": 7645.0, "LATITUDE": 33.287629, "LONGITUDE": -93.557538 }, "geometry": { "type": "Point", "coordinates": [ 225979.060848455352243, -468481.235635893419385 ] } },
{ "type": "Feature", "properties": { "GISJOIN": "G0500750", "GEOID": "05075", "STATEFP": "05", "COUNTYFP": "075", "STNAME": "Arkansas", "COUNAME": "Lawrence", "POPULATION": 17415.0, "LATITUDE": 36.070224, "LONGITUDE": -91.065733 }, "geometry": { "type": "Point", "coordinates": [ 440217.782597095239908, -148753.662978641688824 ] } },
{ "type": "Feature", "properties": { "GISJOIN": "G0500770", "GEOID": "05077", "STATEFP": "05", "COUNTYFP": "077", "STNAME": "Arkansas", "COUNAME": "Lee", "POPULATION": 10424.0, "LATITUDE": 34.785214, "LONGITUDE": -90.774516 }, "geometry": { "type": "Point", "coordinates": [ 474078.285453979216982, -290977.175309937447309 ] } },
{ "type": "Feature", "properties": { "GISJOIN": "G0500790", "GEOID": "05079", "STATEFP": "05", "COUNTYFP": "079", "STNAME": "Arkansas", "COUNAME": "Lincoln", "POPULATION": 14134.0, "LATITUDE": 33.975379, "LONGITUDE": -91.746234 }, "geometry": { "type": "Point", "coordinates": [ 390037.094742343004327, -385830.688189322128892 ] } },
{ "type": "Feature", "properties": { "GISJOIN": "G0500810", "GEOID": "05081", "STATEFP": "05", "COUNTYFP": "081", "STNAME": "Arkansas", "COUNAME": "Little River", "POPULATION": 13171.0, "LATITUDE": 33.700518, "LONGITUDE": -94.195995 }, "geometry": { "type": "Point", "coordinates": [ 166041.427347485121572, -423696.842174634337425 ] } },
{ "type": "Feature", "properties": { "GISJOIN": "G0500830", "GEOID": "05083", "STATEFP": "05", "COUNTYFP": "083", "STNAME": "Arkansas", "COUNAME": "Logan", "POPULATION": 22353.0, "LATITUDE": 35.227532, "LONGITUDE": -93.768119 }, "geometry": { "type": "Point", "coordinates": [ 201407.088766581815435, -252159.910790268331766 ] } },
{ "type": "Feature", "properties": { "GISJOIN": "G0500850", "GEOID": "05085", "STATEFP": "05", "COUNTYFP": "085", "STNAME": "Arkansas", "COUNAME": "Lonoke", "POPULATION": 68356.0, "LATITUDE": 34.905178, "LONGITUDE": -91.970577 }, "geometry": { "type": "Point", "coordinates": [ 365072.362830431316979, -282853.441136928275228 ] } },
{ "type": "Feature", "properties": { "GISJOIN": "G0500870", "GEOID": "05087", "STATEFP": "05", "COUNTYFP": "087", "STNAME": "Arkansas", "COUNAME": "Madison", "POPULATION": 15717.0, "LATITUDE": 36.061309, "LONGITUDE": -93.755297 }, "geometry": { "type": "Point", "coordinates": [ 200359.390436252549989, -158816.617162065580487 ] } },
{ "type": "Feature", "properties": { "GISJOIN": "G0500890", "GEOID": "05089", "STATEFP": "05", "COUNTYFP": "089", "STNAME": "Arkansas", "COUNAME": "Marion", "POPULATION": 16653.0, "LATITUDE": 36.28457, "LONGITUDE": -92.663368 }, "geometry": { "type": "Point", "coordinates": [ 296912.384956688794773, -130965.676480935886502 ] } },
{ "type": "Feature", "properties": { "GISJOIN": "G0500910", "GEOID": "05091", "STATEFP": "05", "COUNTYFP": "091", "STNAME": "Arkansas", "COUNAME": "Miller", "POPULATION": 43462.0, "LATITUDE": 33.400831, "LONGITUDE": -93.987504 }, "geometry": { "type": "Point", "coordinates": [ 185937.09804595564492, -456776.488652292639017 ] } },
{ "type": "Feature", "properties": { "GISJOIN": "G0500930", "GEOID": "05093", "STATEFP": "05", "COUNTYFP": "093", "STNAME": "Arkansas", "COUNAME": "Mississippi", "POPULATION": 46480.0, "LATITUDE": 35.84288, "LONGITUDE": -89.999037 }, "geometry": { "type": "Point", "coordinates": [ 536875.840956796542741, -168686.016902195289731 ] } },
{ "type": "Feature", "properties": { "GISJOIN": "G0500950", "GEOID": "05095", "STATEFP": "05", "COUNTYFP": "095", "STNAME": "Arkansas", "COUNAME": "Monroe", "POPULATION": 8149.0, "LATITUDE": 34.777729, "LONGITUDE": -91.218021 }, "geometry": { "type": "Point", "coordinates": [ 433919.268341552990023, -293932.035833718255162 ] } },
{ "type": "Feature", "properties": { "GISJOIN": "G0500970", "GEOID": "05097", "STATEFP": "05", "COUNTYFP": "097", "STNAME": "Arkansas", "COUNAME": "Montgomery", "POPULATION": 9487.0, "LATITUDE": 34.517013, "LONGITUDE": -93.622663 }, "geometry": { "type": "Point", "coordinates": [ 216518.726004687254317, -331302.695103351026773 ] } },
{ "type": "Feature", "properties": { "GISJOIN": "G0500990", "GEOID": "05099", "STATEFP": "05", "COUNTYFP": "099", "STNAME": "Arkansas", "COUNAME": "Nevada", "POPULATION": 8997.0, "LATITUDE": 33.722168, "LONGITUDE": -93.358085 }, "geometry": { "type": "Point", "coordinates": [ 243079.092059073911514, -419475.203598462045193 ] } },
{ "type": "Feature", "properties": { "GISJOIN": "G0501010", "GEOID": "05101", "STATEFP": "05", "COUNTYFP": "101", "STNAME": "Arkansas", "COUNAME": "Newton", "POPULATION": 8330.0, "LATITUDE": 35.98494, "LONGITUDE": -93.1705 }, "geometry": { "type": "Point", "coordinates": [ 252798.403645700309426, -165971.492860341444612 ] } },
{ "type": "Feature", "properties": { "GISJOIN": "G0501030", "GEOID": "05103", "STATEFP": "05", "COUNTYFP": "103", "STNAME": "Arkansas", "COUNAME": "Ouachita", "POPULATION": 26120.0, "LATITUDE": 33.574461, "LONGITUDE": -92.838871 }, "geometry": { "type": "Point", "coordinates": [ 291383.849679992767051, -434507.383600041270256 ] } },
{ "type": "Feature", "properties": { "GISJOIN": "G0501050", "GEOID": "05105", "STATEFP": "05", "COUNTYFP": "105", "STNAME": "Arkansas", "COUNAME": "Perry", "POPULATION": 10445.0, "LATITUDE": 34.999054, "LONGITUDE": -92.779271 }, "geometry": { "type": "Point", "coordinates": [ 291479.052459104335867, -275151.639938864856958 ] } },
{ "type": "Feature", "properties": { "GISJOIN": "G0501070", "GEOID": "05107", "STATEFP": "05", "COUNTYFP": "107", "STNAME": "Arkansas", "COUNAME": "Phillips", "POPULATION": 21757.0, "LATITUDE": 34.529768, "LONGITUDE": -90.707796 }, "geometry": { "type": "Point", "coordinates": [ 481715.395268175750971, -319168.32590701431036 ] } },
{ "type": "Feature", "properties": { "GISJOIN": "G0501090", "GEOID": "05109", "STATEFP": "05", "COUNTYFP": "109", "STNAME": "Arkansas", "COUNAME": "Pike", "POPULATION": 11291.0, "LATITUDE": 34.187298, "LONGITUDE": -93.624765 }, "geometry": { "type": "Point", "coordinates": [ 217248.602087720704731, -368160.169240919873118 ] } },
{ "type": "Feature", "properties": { "GISJOIN": "G0501110", "GEOID": "05111", "STATEFP": "05", "COUNTYFP": "111", "STNAME": "Arkansas", "COUNAME": "Poinsett", "POPULATION": 24583.0, "LATITUDE": 35.60191, "LONGITUDE": -90.557998 }, "geometry": { "type": "Point", "coordinates": [ 488469.981681539386045, -198631.401109080761671 ] } },
{ "type": "Feature", "properties": { "GISJOIN": "G0501130", "GEOID": "05113", "STATEFP": "05", "COUNTYFP": "113", "STNAME": "Arkansas", "COUNAME": "Polk", "POPULATION": 20662.0, "LATITUDE": 34.52045, "LONGITUDE": -94.258519 }, "geometry": { "type": "Point", "coordinates": [ 158608.026231657568133, -332173.399858491495252 ] } },
{ "type": "Feature", "properties": { "GISJOIN": "G0501150", "GEOID": "05115", "STATEFP": "05", "COUNTYFP": "115", "STNAME": "Arkansas", "COUNAME": "Pope", "POPULATION": 61754.0, "LATITUDE": 35.309776, "LONGITUDE": -93.097238 }, "geometry": { "type": "Point", "coordinates": [ 261650.28394842724083, -241324.432032121345401 ] } },
{ "type": "Feature", "properties": { "GISJOIN": "G0501170", "GEOID": "05117", "STATEFP": "05", "COUNTYFP": "117", "STNAME": "Arkansas", "COUNAME": "Prairie", "POPULATION": 8715.0, "LATITUDE": 34.859177, "LONGITUDE": -91.536241 }, "geometry": { "type": "Point", "coordinates": [ 404638.017832902318332, -286235.614312091842294 ] } },
{ "type": "Feature", "properties": { "GISJOIN": "G0501190", "GEOID": "05119", "STATEFP": "05", "COUNTYFP": "119", "STNAME": "Arkansas", "COUNAME": "Pulaski", "POPULATION": 382748.0, "LATITUDE": 34.773719, "LONGITUDE": -92.311659 }, "geometry": { "type": "Point", "coordinates": [ 334756.617262945161201, -298803.148083217442036 ] } },
{ "type": "Feature", "properties": { "GISJOIN": "G0501210", "GEOID": "05121", "STATEFP": "05", "COUNTYFP": "121", "STNAME": "Arkansas", "COUNAME": "Randolph", "POPULATION": 17969.0, "LATITUDE": 36.304758, "LONGITUDE": -90.98842 }, "geometry": { "type": "Point", "coordinates": [ 445724.465352001832798, -122161.989750444889069 ] } },
{ "type": "Feature", "properties": { "GISJOIN": "G0501230", "GEOID": "05123", "STATEFP": "05", "COUNTYFP": "123", "STNAME": "Arkansas", "COUNAME": "St. Francis", "POPULATION": 28258.0, "LATITUDE": 35.015313, "LONGITUDE": -90.770297 }, "geometry": { "type": "Point", "coordinates": [ 473044.783985473739449, -265252.970171244814992 ] } },
{ "type": "Feature", "properties": { "GISJOIN": "G0501250", "GEOID": "05125", "STATEFP": "05", "COUNTYFP": "125", "STNAME": "Arkansas", "COUNAME": "Saline", "POPULATION": 107118.0, "LATITUDE": 34.593233, "LONGITUDE": -92.546163 }, "geometry": { "type": "Point", "coordinates": [ 314216.053724705532659, -319776.682267088443041 ] } },
{ "type": "Feature", "properties": { "GISJOIN": "G0501270", "GEOID": "05127", "STATEFP": "05", "COUNTYFP": "127", "STNAME": "Arkansas", "COUNAME": "Scott", "POPULATION": 11233.0, "LATITUDE": 34.907145, "LONGITUDE": -94.095905 }, "geometry": { "type": "Point", "coordinates": [ 172549.890797718777321, -288645.434997258707881 ] } },
{ "type": "Feature", "properties": { "GISJOIN": "G0501290", "GEOID": "05129", "STATEFP": "05", "COUNTYFP": "129", "STNAME": "Arkansas", "COUNAME": "Searcy", "POPULATION": 8195.0, "LATITUDE": 35.922829, "LONGITUDE": -92.659155 }, "geometry": { "type": "Point", "coordinates": [ 298711.004449935862795, -171439.228806598111987 ] } },
{ "type": "Feature", "properties": { "GISJOIN": "G0501310", "GEOID": "05131", "STATEFP": "05", "COUNTYFP": "131", "STNAME": "Arkansas", "COUNAME": "Sebastian", "POPULATION": 125744.0, "LATITUDE": 35.318195, "LONGITUDE": -94.354435 }, "geometry": { "type": "Point", "coordinates": [ 148327.913358099933248, -243094.278232831507921 ] } },
{ "type": "Feature", "properties": { "GISJOIN": "G0501330", "GEOID": "05133", "STATEFP": "05", "COUNTYFP": "133", "STNAME": "Arkansas", "COUNAME": "Sevier", "POPULATION": 17058.0, "LATITUDE": 34.014236, "LONGITUDE": -94.304091 }, "geometry": { "type": "Point", "coordinates": [ 155467.790745997364866, -388831.548095561563969 ] } },
{ "type": "Feature", "properties": { "GISJOIN": "G0501350", "GEOID": "05135", "STATEFP": "05", "COUNTYFP": "135", "STNAME": "Arkansas", "COUNAME": "Sharp", "POPULATION": 17264.0, "LATITUDE": 36.178493, "LONGITUDE": -91.520168 }, "geometry": { "type": "Point", "coordinates": [ 399134.892690704728011, -138649.983076676726341 ] } },
{ "type": "Feature", "properties": { "GISJOIN": "G0501370", "GEOID": "05137", "STATEFP": "05", "COUNTYFP": "137", "STNAME": "Arkansas", "COUNAME": "Stone", "POPULATION": 12394.0, "LATITUDE": 35.856705, "LONGITUDE": -92.137 }, "geometry": { "type": "Point", "coordinates": [ 345674.739220660063438, -177067.808899013325572 ] } },
{ "type": "Feature", "properties": { "GISJOIN": "G0501390", "GEOID": "05139", "STATEFP": "05", "COUNTYFP": "139", "STNAME": "Arkansas", "COUNAME": "Union", "POPULATION": 41639.0, "LATITUDE": 33.20687, "LONGITUDE": -92.64508 }, "geometry": { "type": "Point", "coordinates": [ 310688.527473940281197, -474916.928269445896149 ] } },
{ "type": "Feature", "properties": { "GISJOIN": "G0501410", "GEOID": "05141", "STATEFP": "05", "COUNTYFP": "141", "STNAME": "Arkansas", "COUNAME": "Van Buren", "POPULATION": 17295.0, "LATITUDE": 35.567839, "LONGITUDE": -92.421475 }, "geometry": { "type": "Point", "coordinates": [ 321448.956782654277049, -210382.389167884364724 ] } },
{ "type": "Feature", "properties": { "GISJOIN": "G0501430", "GEOID": "05143", "STATEFP": "05", "COUNTYFP": "143", "STNAME": "Arkansas", "COUNAME": "Washington", "POPULATION": 203065.0, "LATITUDE": 36.094275, "LONGITUDE": -94.172222 }, "geometry": { "type": "Point", "coordinates": [ 163079.296242209238699, -155922.852282758802176 ] } },
{ "type": "Feature", "properties": { "GISJOIN": "G0501450", "GEOID": "05145", "STATEFP": "05", "COUNTYFP": "145", "STNAME": "Arkansas", "COUNAME": "White", "POPULATION": 77076.0, "LATITUDE": 35.243736, "LONGITUDE": -91.767388 }, "geometry": { "type": "Point", "coordinates": [ 381783.076839237008244, -244208.280796129256487 ] } },
{ "type": "Feature", "properties": { "GISJOIN": "G0501470", "GEOID": "05147", "STATEFP": "05", "COUNTYFP": "147", "STNAME": "Arkansas", "COUNAME": "Woodruff", "POPULATION": 7260.0, "LATITUDE": 35.233191, "LONGITUDE": -91.252079 }, "geometry": { "type": "Point", "coordinates": [ 428286.484041269053705, -243190.804902020841837 ] } },
{ "type": "Feature", "properties": { "GISJOIN": "G0501490", "GEOID": "05149", "STATEFP": "05", "COUNTYFP": "149", "STNAME": "Arkansas", "COUNAME": "Yell", "POPULATION": 22185.0, "LATITUDE": 35.120982, "LONGITUDE": -93.28946 }, "geometry": { "type": "Point", "coordinates": [ 244931.093100305006374, -262955.310377411544323 ] } },
{ "type": "Feature", "properties": { "GISJOIN": "G0600010", "GEOID": "06001", "STATEFP": "06", "COUNTYFP": "001", "STNAME": "California", "COUNAME": "Alameda", "POPULATION": 1510271.0, "LATITUDE": 37.705201, "LONGITUDE": -122.100393 }, "geometry": { "type": "Point", "coordinates": [ -2250773.974415255710483, 334037.039818638004363 ] } },
{ "type": "Feature", "properties": { "GISJOIN": "G0600030", "GEOID": "06003", "STATEFP": "06", "COUNTYFP": "003", "STNAME": "California", "COUNAME": "Alpine", "POPULATION": 1175.0, "LATITUDE": 38.728298, "LONGITUDE": -119.847603 }, "geometry": { "type": "Point", "coordinates": [ -2032323.849342433735728, 394012.284521718509495 ] } },
{ "type": "Feature", "properties": { "GISJOIN": "G0600050", "GEOID": "06005", "STATEFP": "06", "COUNTYFP": "005", "STNAME": "California", "COUNAME": "Amador", "POPULATION": 38091.0, "LATITUDE": 38.394208, "LONGITUDE": -120.775729 }, "geometry": { "type": "Point", "coordinates": [ -2119306.98934038169682, 378056.8217111537233 ] } },
{ "type": "Feature", "properties": { "GISJOIN": "G0600070", "GEOID": "06007", "STATEFP": "06", "COUNTYFP": "007", "STNAME": "California", "COUNAME": "Butte", "POPULATION": 220000.0, "LATITUDE": 39.669037, "LONGITUDE": -121.707635 }, "geometry": { "type": "Point", "coordinates": [ -2158922.869529753457755, 536906.542325749062002 ] } },
{ "type": "Feature", "properties": { "GISJOIN": "G0600090", "GEOID": "06009", "STATEFP": "06", "COUNTYFP": "009", "STNAME": "California", "COUNAME": "Calaveras", "POPULATION": 45578.0, "LATITUDE": 38.163627, "LONGITUDE": -120.633718 }, "geometry": { "type": "Point", "coordinates": [ -2114058.05356771312654, 349917.278305253945291 ] } },
{ "type": "Feature", "properties": { "GISJOIN": "G0600110", "GEOID": "06011", "STATEFP": "06", "COUNTYFP": "011", "STNAME": "California", "COUNAME": "Colusa", "POPULATION": 21419.0, "LATITUDE": 39.156148, "LONGITUDE": -122.085557 }, "geometry": { "type": "Point", "coordinates": [ -2205445.893790479749441, 490225.123846798203886 ] } },
{ "type": "Feature", "properties": { "GISJOIN": "G0600130", "GEOID": "06013", "STATEFP": "06", "COUNTYFP": "013", "STNAME": "California", "COUNAME": "Contra Costa", "POPULATION": 1049025.0, "LATITUDE": 37.935588, "LONGITUDE": -122.030131 }, "geometry": { "type": "Point", "coordinates": [ -2237882.855171869043261, 357234.090339827351272 ] } },
{ "type": "Feature", "properties": { "GISJOIN": "G0600150", "GEOID": "06015", "STATEFP": "06", "COUNTYFP": "015", "STNAME": "California", "COUNAME": "Del Norte", "POPULATION": 28610.0, "LATITUDE": 41.791232, "LONGITUDE": -124.163088 }, "geometry": { "type": "Point", "coordinates": [ -2289928.285685940645635, 822585.415024993009865 ] } },
{ "type": "Feature", "properties": { "GISJOIN": "G0600170", "GEOID": "06017", "STATEFP": "06", "COUNTYFP": "017", "STNAME": "California", "COUNAME": "El Dorado", "POPULATION": 181058.0, "LATITUDE": 38.746543, "LONGITUDE": -120.74433 }, "geometry": { "type": "Point", "coordinates": [ -2106515.181689604651183, 415517.893488390371203 ] } },
{ "type": "Feature", "properties": { "GISJOIN": "G0600190", "GEOID": "06019", "STATEFP": "06", "COUNTYFP": "019", "STNAME": "California", "COUNAME": "Fresno", "POPULATION": 930450.0, "LATITUDE": 36.738918, "LONGITUDE": -119.767884 }, "geometry": { "type": "Point", "coordinates": [ -2080853.724173185415566, 176294.269949991255999 ] } },
{ "type": "Feature", "properties": { "GISJOIN": "G0600210", "GEOID": "06021", "STATEFP": "06", "COUNTYFP": "021", "STNAME": "California", "COUNAME": "Glenn", "POPULATION": 28122.0, "LATITUDE": 39.663418, "LONGITUDE": -122.177491 }, "geometry": { "type": "Point", "coordinates": [ -2197558.808802489191294, 547069.694212587550282 ] } },
{ "type": "Feature", "properties": { "GISJOIN": "G0600230", "GEOID": "06023", "STATEFP": "06", "COUNTYFP": "023", "STNAME": "California", "COUNAME": "Humboldt", "POPULATION": 134623.0, "LATITUDE": 40.752982, "LONGITUDE": -124.087189 }, "geometry": { "type": "Point", "coordinates": [ -2317791.275850266683847, 709570.756500258110464 ] } },
{ "type": "Feature", "properties": { "GISJOIN": "G0600250", "GEOID": "06025", "STATEFP": "06", "COUNTYFP": "025", "STNAME": "California", "COUNAME": "Imperial", "POPULATION": 174528.0, "LATITUDE": 32.841101, "LONGITUDE": -115.534487 }, "geometry": { "type": "Point", "coordinates": [ -1805019.927977210376412, -335052.744955843314528 ] } },
{ "type": "Feature", "properties": { "GISJOIN": "G0600270", "GEOID": "06027", "STATEFP": "06", "COUNTYFP": "027", "STNAME": "California", "COUNAME": "Inyo", "POPULATION": 18546.0, "LATITUDE": 37.160247, "LONGITUDE": -118.267513 }, "geometry": { "type": "Point", "coordinates": [ -1941033.502879002597183, 190376.896747101098299 ] } },
{ "type": "Feature", "properties": { "GISJOIN": "G0600290", "GEOID": "06029", "STATEFP": "06", "COUNTYFP": "029", "STNAME": "California", "COUNAME": "Kern", "POPULATION": 839631.0, "LATITUDE": 35.372968, "LONGITUDE": -118.936004 }, "geometry": { "type": "Point", "coordinates": [ -2046030.111555424984545, 9859.219758928753436 ] } },
{ "type": "Feature", "properties": { "GISJOIN": "G0600310", "GEOID": "06031", "STATEFP": "06", "COUNTYFP": "031", "STNAME": "California", "COUNAME": "Kings", "POPULATION": 152982.0, "LATITUDE": 36.242749, "LONGITUDE": -119.729084 }, "geometry": { "type": "Point", "coordinates": [ -2091262.017690220847726, 121588.658226569183171 ] } },
{ "type": "Feature", "properties": { "GISJOIN": "G0600330", "GEOID": "06033", "STATEFP": "06", "COUNTYFP": "033", "STNAME": "California", "COUNAME": "Lake", "POPULATION": 64665.0, "LATITUDE": 38.973362, "LONGITUDE": -122.734609 }, "geometry": { "type": "Point", "coordinates": [ -2264571.6651316662319, 485788.779355954378843 ] } },
{ "type": "Feature", "properties": { "GISJOIN": "G0600350", "GEOID": "06035", "STATEFP": "06", "COUNTYFP": "035", "STNAME": "California", "COUNAME": "Lassen", "POPULATION": 34895.0, "LATITUDE": 40.392397, "LONGITUDE": -120.579176 }, "geometry": { "type": "Point", "coordinates": [ -2045598.795205576578155, 590172.649403423070908 ] } },
{ "type": "Feature", "properties": { "GISJOIN": "G0600370", "GEOID": "06037", "STATEFP": "06", "COUNTYFP": "037", "STNAME": "California", "COUNAME": "Los Angeles", "POPULATION": 9818605.0, "LATITUDE": 34.065193, "LONGITUDE": -118.244222 }, "geometry": { "type": "Point", "coordinates": [ -2019394.781246945029125, -147100.899239215999842 ] } },
{ "type": "Feature", "properties": { "GISJOIN": "G0600390", "GEOID": "06039", "STATEFP": "06", "COUNTYFP": "039", "STNAME": "California", "COUNAME": "Madera", "POPULATION": 150865.0, "LATITUDE": 37.043099, "LONGITUDE": -120.00675 }, "geometry": { "type": "Point", "coordinates": [ -2092803.562423377064988, 214549.983659686520696 ] } },
{ "type": "Feature", "properties": { "GISJOIN": "G0600410", "GEOID": "06041", "STATEFP": "06", "COUNTYFP": "041", "STNAME": "California", "COUNAME": "Marin", "POPULATION": 252409.0, "LATITUDE": 37.986705, "LONGITUDE": -122.547075 }, "geometry": { "type": "Point", "coordinates": [ -2279595.89413259876892, 375032.292549794539809 ] } },
{ "type": "Feature", "properties": { "GISJOIN": "G0600430", "GEOID": "06043", "STATEFP": "06", "COUNTYFP": "043", "STNAME": "California", "COUNAME": "Mariposa", "POPULATION": 18251.0, "LATITUDE": 37.542748, "LONGITUDE": -119.957219 }, "geometry": { "type": "Point", "coordinates": [ -2074611.543406463693827, 267682.20658147521317 ] } },
{ "type": "Feature", "properties": { "GISJOIN": "G0600450", "GEOID": "06045", "STATEFP": "06", "COUNTYFP": "045", "STNAME": "California", "COUNAME": "Mendocino", "POPULATION": 87841.0, "LATITUDE": 39.285329, "LONGITUDE": -123.397227 }, "geometry": { "type": "Point", "coordinates": [ -2309214.043949094135314, 535290.991832507774234 ] } },
{ "type": "Feature", "properties": { "GISJOIN": "G0600470", "GEOID": "06047", "STATEFP": "06", "COUNTYFP": "047", "STNAME": "California", "COUNAME": "Merced", "POPULATION": 255793.0, "LATITUDE": 37.281016, "LONGITUDE": -120.623989 }, "geometry": { "type": "Point", "coordinates": [ -2138586.91409582272172, 254083.843186342157423 ] } },
{ "type": "Feature", "properties": { "GISJOIN": "G0600490", "GEOID": "06049", "STATEFP": "06", "COUNTYFP": "049", "STNAME": "California", "COUNAME": "Modoc", "POPULATION": 9686.0, "LATITUDE": 41.522584, "LONGITUDE": -120.650911 }, "geometry": { "type": "Point", "coordinates": [ -2018974.489405388012528, 714038.669826074503362 ] } },
{ "type": "Feature", "properties": { "GISJOIN": "G0600510", "GEOID": "06051", "STATEFP": "06", "COUNTYFP": "051", "STNAME": "California", "COUNAME": "Mono", "POPULATION": 14202.0, "LATITUDE": 37.763322, "LONGITUDE": -118.970594 }, "geometry": { "type": "Point", "coordinates": [ -1984963.298608889104798, 270580.375199095346034 ] } },
{ "type": "Feature", "properties": { "GISJOIN": "G0600530", "GEOID": "06053", "STATEFP": "06", "COUNTYFP": "053", "STNAME": "California", "COUNAME": "Monterey", "POPULATION": 415057.0, "LATITUDE": 36.611722, "LONGITUDE": -121.646162 }, "geometry": { "type": "Point", "coordinates": [ -2245234.16952997725457, 205275.320413270965219 ] } },
{ "type": "Feature", "properties": { "GISJOIN": "G0600550", "GEOID": "06055", "STATEFP": "06", "COUNTYFP": "055", "STNAME": "California", "COUNAME": "Napa", "POPULATION": 136484.0, "LATITUDE": 38.329075, "LONGITUDE": -122.321646 }, "geometry": { "type": "Point", "coordinates": [ -2250244.761256088968366, 406559.103188217617571 ] } },
{ "type": "Feature", "properties": { "GISJOIN": "G0600570", "GEOID": "06057", "STATEFP": "06", "COUNTYFP": "057", "STNAME": "California", "COUNAME": "Nevada", "POPULATION": 98764.0, "LATITUDE": 39.219524, "LONGITUDE": -120.916546 }, "geometry": { "type": "Point", "coordinates": [ -2107099.245235599111766, 470549.314519602805376 ] } },
{ "type": "Feature", "properties": { "GISJOIN": "G0600590", "GEOID": "06059", "STATEFP": "06", "COUNTYFP": "059", "STNAME": "California", "COUNAME": "Orange", "POPULATION": 3010232.0, "LATITUDE": 33.733953, "LONGITUDE": -117.86288 }, "geometry": { "type": "Point", "coordinates": [ -1993834.188514606328681, -191174.764461316168308 ] } },
{ "type": "Feature", "properties": { "GISJOIN": "G0600610", "GEOID": "06061", "STATEFP": "06", "COUNTYFP": "061", "STNAME": "California", "COUNAME": "Placer", "POPULATION": 348432.0, "LATITUDE": 38.844511, "LONGITUDE": -121.182466 }, "geometry": { "type": "Point", "coordinates": [ -2140069.169257209636271, 435911.143980766646564 ] } },
{ "type": "Feature", "properties": { "GISJOIN": "G0600630", "GEOID": "06063", "STATEFP": "06", "COUNTYFP": "063", "STNAME": "California", "COUNAME": "Plumas", "POPULATION": 20007.0, "LATITUDE": 39.983857, "LONGITUDE": -120.825847 }, "geometry": { "type": "Point", "coordinates": [ -2077482.612062548520043, 551290.232814599759877 ] } },
{ "type": "Feature", "properties": { "GISJOIN": "G0600650", "GEOID": "06065", "STATEFP": "06", "COUNTYFP": "065", "STNAME": "California", "COUNAME": "Riverside", "POPULATION": 2189641.0, "LATITUDE": 33.800439, "LONGITUDE": -117.066205 }, "geometry": { "type": "Point", "coordinates": [ -1920763.558735619299114, -200343.632709596306086 ] } },
{ "type": "Feature", "properties": { "GISJOIN": "G0600670", "GEOID": "06067", "STATEFP": "06", "COUNTYFP": "067", "STNAME": "California", "COUNAME": "Sacramento", "POPULATION": 1418788.0, "LATITUDE": 38.56895, "LONGITUDE": -121.380861 }, "geometry": { "type": "Point", "coordinates": [ -2164679.368250969331712, 410604.526675718836486 ] } },
{ "type": "Feature", "properties": { "GISJOIN": "G0600690", "GEOID": "06069", "STATEFP": "06", "COUNTYFP": "069", "STNAME": "California", "COUNAME": "San Benito", "POPULATION": 55269.0, "LATITUDE": 36.843404, "LONGITUDE": -121.403859 }, "geometry": { "type": "Point", "coordinates": [ -2217675.385794437490404, 224611.517022111453116 ] } },
{ "type": "Feature", "properties": { "GISJOIN": "G0600710", "GEOID": "06071", "STATEFP": "06", "COUNTYFP": "071", "STNAME": "California", "COUNAME": "San Bernardino", "POPULATION": 2035210.0, "LATITUDE": 34.190248, "LONGITUDE": -117.357474 }, "geometry": { "type": "Point", "coordinates": [ -1937167.004296996630728, -151948.118532460182905 ] } },
{ "type": "Feature", "properties": { "GISJOIN": "G0600730", "GEOID": "06073", "STATEFP": "06", "COUNTYFP": "073", "STNAME": "California", "COUNAME": "San Diego", "POPULATION": 3095313.0, "LATITUDE": 32.88326, "LONGITUDE": -117.112994 }, "geometry": { "type": "Point", "coordinates": [ -1947524.48705603601411, -299290.009379288181663 ] } },
{ "type": "Feature", "properties": { "GISJOIN": "G0600750", "GEOID": "06075", "STATEFP": "06", "COUNTYFP": "075", "STNAME": "California", "COUNAME": "San Francisco", "POPULATION": 805235.0, "LATITUDE": 37.759598, "LONGITUDE": -122.438323 }, "geometry": { "type": "Point", "coordinates": [ -2277490.440597586799413, 347953.324601805768907 ] } },
{ "type": "Feature", "properties": { "GISJOIN": "G0600770", "GEOID": "06077", "STATEFP": "06", "COUNTYFP": "077", "STNAME": "California", "COUNAME": "San Joaquin", "POPULATION": 685306.0, "LATITUDE": 37.931804, "LONGITUDE": -121.298108 }, "geometry": { "type": "Point", "coordinates": [ -2176576.377779979258776, 339823.380891111679375 ] } },
{ "type": "Feature", "properties": { "GISJOIN": "G0600790", "GEOID": "06079", "STATEFP": "06", "COUNTYFP": "079", "STNAME": "California", "COUNAME": "San Luis Obispo", "POPULATION": 269637.0, "LATITUDE": 35.342391, "LONGITUDE": -120.667689 }, "geometry": { "type": "Point", "coordinates": [ -2198026.144359936006367, 45212.009229134768248 ] } },
{ "type": "Feature", "properties": { "GISJOIN": "G0600810", "GEOID": "06081", "STATEFP": "06", "COUNTYFP": "081", "STNAME": "California", "COUNAME": "San Mateo", "POPULATION": 718451.0, "LATITUDE": 37.56395, "LONGITUDE": -122.340991 }, "geometry": { "type": "Point", "coordinates": [ -2275322.354616679251194, 324534.611470326781273 ] } },
{ "type": "Feature", "properties": { "GISJOIN": "G0600830", "GEOID": "06083", "STATEFP": "06", "COUNTYFP": "083", "STNAME": "California", "COUNAME": "Santa Barbara", "POPULATION": 423895.0, "LATITUDE": 34.639262, "LONGITUDE": -120.092602 }, "geometry": { "type": "Point", "coordinates": [ -2167629.854091949760914, -44091.811845133081079 ] } },
{ "type": "Feature", "properties": { "GISJOIN": "G0600850", "GEOID": "06085", "STATEFP": "06", "COUNTYFP": "085", "STNAME": "California", "COUNAME": "Santa Clara", "POPULATION": 1781642.0, "LATITUDE": 37.315105, "LONGITUDE": -121.910421 }, "geometry": { "type": "Point", "coordinates": [ -2246573.632970691192895, 287450.460796821862459 ] } },
{ "type": "Feature", "properties": { "GISJOIN": "G0600870", "GEOID": "06087", "STATEFP": "06", "COUNTYFP": "087", "STNAME": "California", "COUNAME": "Santa Cruz", "POPULATION": 262382.0, "LATITUDE": 36.985171, "LONGITUDE": -121.936728 }, "geometry": { "type": "Point", "coordinates": [ -2258763.160210774745792, 252469.97384887188673 ] } },
{ "type": "Feature", "properties": { "GISJOIN": "G0600890", "GEOID": "06089", "STATEFP": "06", "COUNTYFP": "089", "STNAME": "California", "COUNAME": "Shasta", "POPULATION": 177223.0, "LATITUDE": 40.580269, "LONGITUDE": -122.299961 }, "geometry": { "type": "Point", "coordinates": [ -2179510.325723659712821, 648722.092457368038595 ] } },
{ "type": "Feature", "properties": { "GISJOIN": "G0600910", "GEOID": "06091", "STATEFP": "06", "COUNTYFP": "091", "STNAME": "California", "COUNAME": "Sierra", "POPULATION": 3240.0, "LATITUDE": 39.612588, "LONGITUDE": -120.414236 }, "geometry": { "type": "Point", "coordinates": [ -2054376.568115829257295, 502127.326004900969565 ] } },
{ "type": "Feature", "properties": { "GISJOIN": "G0600930", "GEOID": "06093", "STATEFP": "06", "COUNTYFP": "093", "STNAME": "California", "COUNAME": "Siskiyou", "POPULATION": 44900.0, "LATITUDE": 41.576203, "LONGITUDE": -122.489833 }, "geometry": { "type": "Point", "coordinates": [ -2164155.53007254563272, 760297.626939962618053 ] } },
{ "type": "Feature", "properties": { "GISJOIN": "G0600950", "GEOID": "06095", "STATEFP": "06", "COUNTYFP": "095", "STNAME": "California", "COUNAME": "Solano", "POPULATION": 413344.0, "LATITUDE": 38.235582, "LONGITUDE": -122.069324 }, "geometry": { "type": "Point", "coordinates": [ -2232058.953406071756035, 390524.960665758699179 ] } },
{ "type": "Feature", "properties": { "GISJOIN": "G0600970", "GEOID": "06097", "STATEFP": "06", "COUNTYFP": "097", "STNAME": "California", "COUNAME": "Sonoma", "POPULATION": 483878.0, "LATITUDE": 38.41408, "LONGITUDE": -122.720522 }, "geometry": { "type": "Point", "coordinates": [ -2280804.576270511839539, 425227.356193889863789 ] } },
{ "type": "Feature", "properties": { "GISJOIN": "G0600990", "GEOID": "06099", "STATEFP": "06", "COUNTYFP": "099", "STNAME": "California", "COUNAME": "Stanislaus", "POPULATION": 514453.0, "LATITUDE": 37.619147, "LONGITUDE": -120.955577 }, "geometry": { "type": "Point", "coordinates": [ -2156887.924155975691974, 298189.508007475174963 ] } },
{ "type": "Feature", "properties": { "GISJOIN": "G0601010", "GEOID": "06101", "STATEFP": "06", "COUNTYFP": "101", "STNAME": "California", "COUNAME": "Sutter", "POPULATION": 94737.0, "LATITUDE": 39.13549, "LONGITUDE": -121.644269 }, "geometry": { "type": "Point", "coordinates": [ -2169671.8182562161237, 477837.030535926111042 ] } },
{ "type": "Feature", "properties": { "GISJOIN": "G0601030", "GEOID": "06103", "STATEFP": "06", "COUNTYFP": "103", "STNAME": "California", "COUNAME": "Tehama", "POPULATION": 63463.0, "LATITUDE": 40.115187, "LONGITUDE": -122.218704 }, "geometry": { "type": "Point", "coordinates": [ -2187140.919219759758562, 596730.71099585108459 ] } },
{ "type": "Feature", "properties": { "GISJOIN": "G0601050", "GEOID": "06105", "STATEFP": "06", "COUNTYFP": "105", "STNAME": "California", "COUNAME": "Trinity", "POPULATION": 13786.0, "LATITUDE": 40.681268, "LONGITUDE": -123.072357 }, "geometry": { "type": "Point", "coordinates": [ -2238625.363124532159418, 677546.111694131046534 ] } },
{ "type": "Feature", "properties": { "GISJOIN": "G0601070", "GEOID": "06107", "STATEFP": "06", "COUNTYFP": "107", "STNAME": "California", "COUNAME": "Tulare", "POPULATION": 442179.0, "LATITUDE": 36.251227, "LONGITUDE": -119.231547 }, "geometry": { "type": "Point", "coordinates": [ -2048070.494763225549832, 111673.820243692025542 ] } },
{ "type": "Feature", "properties": { "GISJOIN": "G0601090", "GEOID": "06109", "STATEFP": "06", "COUNTYFP": "109", "STNAME": "California", "COUNAME": "Tuolumne", "POPULATION": 55365.0, "LATITUDE": 37.971531, "LONGITUDE": -120.32853 }, "geometry": { "type": "Point", "coordinates": [ -2093897.190427709603682, 322340.209145543165505 ] } },
{ "type": "Feature", "properties": { "GISJOIN": "G0601110", "GEOID": "06111", "STATEFP": "06", "COUNTYFP": "111", "STNAME": "California", "COUNAME": "Ventura", "POPULATION": 823318.0, "LATITUDE": 34.241989, "LONGITUDE": -119.025018 }, "geometry": { "type": "Point", "coordinates": [ -2084168.145759136648849, -111038.832923969253898 ] } },
{ "type": "Feature", "properties": { "GISJOIN": "G0601130", "GEOID": "06113", "STATEFP": "06", "COUNTYFP": "113", "STNAME": "California", "COUNAME": "Yolo", "POPULATION": 200849.0, "LATITUDE": 38.598913, "LONGITUDE": -121.721112 }, "geometry": { "type": "Point", "coordinates": [ -2192093.523498718626797, 421641.694811525754631 ] } },
{ "type": "Feature", "properties": { "GISJOIN": "G0601150", "GEOID": "06115", "STATEFP": "06", "COUNTYFP": "115", "STNAME": "California", "COUNAME": "Yuba", "POPULATION": 72155.0, "LATITUDE": 39.13883, "LONGITUDE": -121.506626 }, "geometry": { "type": "Point", "coordinates": [ -2158208.826042195316404, 475063.720251964405179 ] } },
{ "type": "Feature", "properties": { "GISJOIN": "G0800010", "GEOID": "08001", "STATEFP": "08", "COUNTYFP": "001", "STNAME": "Colorado", "COUNAME": "Adams", "POPULATION": 441603.0, "LATITUDE": 39.874297, "LONGITUDE": -104.927473 }, "geometry": { "type": "Point", "coordinates": [ -755676.809157491428778, 301626.781155416741967 ] } },
{ "type": "Feature", "properties": { "GISJOIN": "G0800030", "GEOID": "08003", "STATEFP": "08", "COUNTYFP": "003", "STNAME": "Colorado", "COUNAME": "Alamosa", "POPULATION": 15445.0, "LATITUDE": 37.483069, "LONGITUDE": -105.877245 }, "geometry": { "type": "Point", "coordinates": [ -863600.473519868915901, 43022.010238883085549 ] } },
{ "type": "Feature", "properties": { "GISJOIN": "G0800050", "GEOID": "08005", "STATEFP": "08", "COUNTYFP": "005", "STNAME": "Colorado", "COUNAME": "Arapahoe", "POPULATION": 572003.0, "LATITUDE": 39.647528, "LONGITUDE": -104.845968 }, "geometry": { "type": "Point", "coordinates": [ -751159.697737451293506, 275680.277330519631505 ] } },
{ "type": "Feature", "properties": { "GISJOIN": "G0800070", "GEOID": "08007", "STATEFP": "08", "COUNTYFP": "007", "STNAME": "Colorado", "COUNAME": "Archuleta", "POPULATION": 12084.0, "LATITUDE": 37.240087, "LONGITUDE": -107.085027 }, "geometry": { "type": "Point", "coordinates": [ -971916.768488441244699, 27621.145578729920089 ] } },
{ "type": "Feature", "properties": { "GISJOIN": "G0800090", "GEOID": "08009", "STATEFP": "08", "COUNTYFP": "009", "STNAME": "Colorado", "COUNAME": "Baca", "POPULATION": 3788.0, "LATITUDE": 37.368221, "LONGITUDE": -102.527089 }, "geometry": { "type": "Point", "coordinates": [ -572147.834663681103848, 4887.748108050785959 ] } },
{ "type": "Feature", "properties": { "GISJOIN": "G0800110", "GEOID": "08011", "STATEFP": "08", "COUNTYFP": "011", "STNAME": "Colorado", "COUNAME": "Bent", "POPULATION": 6499.0, "LATITUDE": 38.072386, "LONGITUDE": -103.1631 }, "geometry": { "type": "Point", "coordinates": [ -621855.067961989552714, 87598.930655609816313 ] } },
{ "type": "Feature", "properties": { "GISJOIN": "G0800130", "GEOID": "08013", "STATEFP": "08", "COUNTYFP": "013", "STNAME": "Colorado", "COUNAME": "Boulder", "POPULATION": 294567.0, "LATITUDE": 40.063299, "LONGITUDE": -105.183981 }, "geometry": { "type": "Point", "coordinates": [ -775279.167688809800893, 324774.19014825951308 ] } },
{ "type": "Feature", "properties": { "GISJOIN": "G0800140", "GEOID": "08014", "STATEFP": "08", "COUNTYFP": "014", "STNAME": "Colorado", "COUNAME": "Broomfield", "POPULATION": 55889.0, "LATITUDE": 39.936888, "LONGITUDE": -105.055491 }, "geometry": { "type": "Point", "coordinates": [ -765813.183761027292348, 309633.619628791697323 ] } },
{ "type": "Feature", "properties": { "GISJOIN": "G0800150", "GEOID": "08015", "STATEFP": "08", "COUNTYFP": "015", "STNAME": "Colorado", "COUNAME": "Chaffee", "POPULATION": 17809.0, "LATITUDE": 38.676497, "LONGITUDE": -106.082645 }, "geometry": { "type": "Point", "coordinates": [ -867327.570292620337568, 177917.37304612621665 ] } },
{ "type": "Feature", "properties": { "GISJOIN": "G0800170", "GEOID": "08017", "STATEFP": "08", "COUNTYFP": "017", "STNAME": "Colorado", "COUNAME": "Cheyenne", "POPULATION": 1836.0, "LATITUDE": 38.816795, "LONGITUDE": -102.45777 }, "geometry": { "type": "Point", "coordinates": [ -555056.745986182475463, 166455.636934763751924 ] } },
{ "type": "Feature", "properties": { "GISJOIN": "G0800190", "GEOID": "08019", "STATEFP": "08", "COUNTYFP": "019", "STNAME": "Colorado", "COUNAME": "Clear Creek", "POPULATION": 9088.0, "LATITUDE": 39.712957, "LONGITUDE": -105.52965 }, "geometry": { "type": "Point", "coordinates": [ -808293.17287846643012, 288587.668997935950756 ] } },
{ "type": "Feature", "properties": { "GISJOIN": "G0800210", "GEOID": "08021", "STATEFP": "08", "COUNTYFP": "021", "STNAME": "Colorado", "COUNAME": "Conejos", "POPULATION": 8256.0, "LATITUDE": 37.195652, "LONGITUDE": -105.989049 }, "geometry": { "type": "Point", "coordinates": [ -876719.351174664800055, 12012.400457741692662 ] } },
{ "type": "Feature", "properties": { "GISJOIN": "G0800230", "GEOID": "08023", "STATEFP": "08", "COUNTYFP": "023", "STNAME": "Colorado", "COUNAME": "Costilla", "POPULATION": 3524.0, "LATITUDE": 37.281779, "LONGITUDE": -105.448477 }, "geometry": { "type": "Point", "coordinates": [ -828477.340930713573471, 16763.608474013395607 ] } },
{ "type": "Feature", "properties": { "GISJOIN": "G0800250", "GEOID": "08025", "STATEFP": "08", "COUNTYFP": "025", "STNAME": "Colorado", "COUNAME": "Crowley", "POPULATION": 5823.0, "LATITUDE": 38.188547, "LONGITUDE": -103.857439 }, "geometry": { "type": "Point", "coordinates": [ -680926.593472180422395, 105337.495131916366518 ] } },
{ "type": "Feature", "properties": { "GISJOIN": "G0800270", "GEOID": "08027", "STATEFP": "08", "COUNTYFP": "027", "STNAME": "Colorado", "COUNAME": "Custer", "POPULATION": 4255.0, "LATITUDE": 38.134216, "LONGITUDE": -105.381557 }, "geometry": { "type": "Point", "coordinates": [ -813212.701699013472535, 111254.213859187439084 ] } },
{ "type": "Feature", "properties": { "GISJOIN": "G0800290", "GEOID": "08029", "STATEFP": "08", "COUNTYFP": "029", "STNAME": "Colorado", "COUNAME": "Delta", "POPULATION": 30952.0, "LATITUDE": 38.798565, "LONGITUDE": -107.910553 }, "geometry": { "type": "Point", "coordinates": [ -1022096.744962726719677, 209680.132168233394623 ] } },
{ "type": "Feature", "properties": { "GISJOIN": "G0800310", "GEOID": "08031", "STATEFP": "08", "COUNTYFP": "031", "STNAME": "Colorado", "COUNAME": "Denver", "POPULATION": 600158.0, "LATITUDE": 39.72143, "LONGITUDE": -104.955068 }, "geometry": { "type": "Point", "coordinates": [ -759617.481089566019364, 284792.772629020735621 ] } },
{ "type": "Feature", "properties": { "GISJOIN": "G0800330", "GEOID": "08033", "STATEFP": "08", "COUNTYFP": "033", "STNAME": "Colorado", "COUNAME": "Dolores", "POPULATION": 2064.0, "LATITUDE": 37.740817, "LONGITUDE": -108.75741 }, "geometry": { "type": "Point", "coordinates": [ -1110214.3344001758378, 101619.84422402549535 ] } },
{ "type": "Feature", "properties": { "GISJOIN": "G0800350", "GEOID": "08035", "STATEFP": "08", "COUNTYFP": "035", "STNAME": "Colorado", "COUNAME": "Douglas", "POPULATION": 285465.0, "LATITUDE": 39.48527, "LONGITUDE": -104.879712 }, "geometry": { "type": "Point", "coordinates": [ -755713.333719666581601, 257843.141904057003558 ] } },
{ "type": "Feature", "properties": { "GISJOIN": "G0800370", "GEOID": "08037", "STATEFP": "08", "COUNTYFP": "037", "STNAME": "Colorado", "COUNAME": "Eagle", "POPULATION": 52197.0, "LATITUDE": 39.599453, "LONGITUDE": -106.717771 }, "geometry": { "type": "Point", "coordinates": [ -910095.806378780398518, 286681.86937447078526 ] } },
{ "type": "Feature", "properties": { "GISJOIN": "G0800390", "GEOID": "08039", "STATEFP": "08", "COUNTYFP": "039", "STNAME": "Colorado", "COUNAME": "Elbert", "POPULATION": 23086.0, "LATITUDE": 39.382868, "LONGITUDE": -104.51913 }, "geometry": { "type": "Point", "coordinates": [ -726137.177139683510177, 243603.57852329313755 ] } },
{ "type": "Feature", "properties": { "GISJOIN": "G0800410", "GEOID": "08041", "STATEFP": "08", "COUNTYFP": "041", "STNAME": "Colorado", "COUNAME": "El Paso", "POPULATION": 622263.0, "LATITUDE": 38.873669, "LONGITUDE": -104.758477 }, "geometry": { "type": "Point", "coordinates": [ -751733.496553369332105, 188629.532957313582301 ] } },
{ "type": "Feature", "properties": { "GISJOIN": "G0800430", "GEOID": "08043", "STATEFP": "08", "COUNTYFP": "043", "STNAME": "Colorado", "COUNAME": "Fremont", "POPULATION": 46824.0, "LATITUDE": 38.426058, "LONGITUDE": -105.206532 }, "geometry": { "type": "Point", "coordinates": [ -794925.09413140732795, 142328.417997902259231 ] } },
{ "type": "Feature", "properties": { "GISJOIN": "G0800450", "GEOID": "08045", "STATEFP": "08", "COUNTYFP": "045", "STNAME": "Colorado", "COUNAME": "Garfield", "POPULATION": 56389.0, "LATITUDE": 39.507561, "LONGITUDE": -107.539356 }, "geometry": { "type": "Point", "coordinates": [ -980776.8687175224768, 284627.818278988823295 ] } },
{ "type": "Feature", "properties": { "GISJOIN": "G0800470", "GEOID": "08047", "STATEFP": "08", "COUNTYFP": "047", "STNAME": "Colorado", "COUNAME": "Gilpin", "POPULATION": 5441.0, "LATITUDE": 39.85702, "LONGITUDE": -105.48021 }, "geometry": { "type": "Point", "coordinates": [ -802505.953373386175372, 304231.301385035738349 ] } },
{ "type": "Feature", "properties": { "GISJOIN": "G0800490", "GEOID": "08049", "STATEFP": "08", "COUNTYFP": "049", "STNAME": "Colorado", "COUNAME": "Grand", "POPULATION": 14843.0, "LATITUDE": 40.050388, "LONGITUDE": -105.9754 }, "geometry": { "type": "Point", "coordinates": [ -842003.76086679904256, 330069.184449932537973 ] } },
{ "type": "Feature", "properties": { "GISJOIN": "G0800510", "GEOID": "08051", "STATEFP": "08", "COUNTYFP": "051", "STNAME": "Colorado", "COUNAME": "Gunnison", "POPULATION": 15324.0, "LATITUDE": 38.657886, "LONGITUDE": -106.944723 }, "geometry": { "type": "Point", "coordinates": [ -941409.653892843751237, 184047.954045188613236 ] } },
{ "type": "Feature", "properties": { "GISJOIN": "G0800530", "GEOID": "08053", "STATEFP": "08", "COUNTYFP": "053", "STNAME": "Colorado", "COUNAME": "Hinsdale", "POPULATION": 843.0, "LATITUDE": 37.996875, "LONGITUDE": -107.29653 }, "geometry": { "type": "Point", "coordinates": [ -980316.171648233197629, 114021.694445183500648 ] } },
{ "type": "Feature", "properties": { "GISJOIN": "G0800550", "GEOID": "08055", "STATEFP": "08", "COUNTYFP": "055", "STNAME": "Colorado", "COUNAME": "Huerfano", "POPULATION": 6711.0, "LATITUDE": 37.616312, "LONGITUDE": -104.884201 }, "geometry": { "type": "Point", "coordinates": [ -775648.657066789688542, 49317.578307004645467 ] } },
{ "type": "Feature", "properties": { "GISJOIN": "G0800570", "GEOID": "08057", "STATEFP": "08", "COUNTYFP": "057", "STNAME": "Colorado", "COUNAME": "Jackson", "POPULATION": 1394.0, "LATITUDE": 40.692851, "LONGITUDE": -106.291292 }, "geometry": { "type": "Point", "coordinates": [ -860786.269510601996444, 404461.404949958436191 ] } },
{ "type": "Feature", "properties": { "GISJOIN": "G0800590", "GEOID": "08059", "STATEFP": "08", "COUNTYFP": "059", "STNAME": "Colorado", "COUNAME": "Jefferson", "POPULATION": 534543.0, "LATITUDE": 39.720524, "LONGITUDE": -105.128819 }, "geometry": { "type": "Point", "coordinates": [ -774320.794698304613121, 286093.969840412959456 ] } },
{ "type": "Feature", "properties": { "GISJOIN": "G0800610", "GEOID": "08061", "STATEFP": "08", "COUNTYFP": "061", "STNAME": "Colorado", "COUNAME": "Kiowa", "POPULATION": 1398.0, "LATITUDE": 38.470657, "LONGITUDE": -102.680579 }, "geometry": { "type": "Point", "coordinates": [ -576901.644915172131732, 129077.92401578836143 ] } },
{ "type": "Feature", "properties": { "GISJOIN": "G0800630", "GEOID": "08063", "STATEFP": "08", "COUNTYFP": "063", "STNAME": "Colorado", "COUNAME": "Kit Carson", "POPULATION": 8270.0, "LATITUDE": 39.309763, "LONGITUDE": -102.435733 }, "geometry": { "type": "Point", "coordinates": [ -549426.657920654746704, 221452.719441615045071 ] } },
{ "type": "Feature", "properties": { "GISJOIN": "G0800650", "GEOID": "08065", "STATEFP": "08", "COUNTYFP": "065", "STNAME": "Colorado", "COUNAME": "Lake", "POPULATION": 7310.0, "LATITUDE": 39.24587, "LONGITUDE": -106.308061 }, "geometry": { "type": "Point", "coordinates": [ -879734.489138213102706, 243439.256802572868764 ] } },
{ "type": "Feature", "properties": { "GISJOIN": "G0800670", "GEOID": "08067", "STATEFP": "08", "COUNTYFP": "067", "STNAME": "Colorado", "COUNAME": "La Plata", "POPULATION": 51334.0, "LATITUDE": 37.265198, "LONGITUDE": -107.806184 }, "geometry": { "type": "Point", "coordinates": [ -1034482.320346160558984, 38027.526889720000327 ] } },
{ "type": "Feature", "properties": { "GISJOIN": "G0800690", "GEOID": "08069", "STATEFP": "08", "COUNTYFP": "069", "STNAME": "Colorado", "COUNAME": "Larimer", "POPULATION": 299630.0, "LATITUDE": 40.504546, "LONGITUDE": -105.099218 }, "geometry": { "type": "Point", "coordinates": [ -763419.918149829260074, 373292.117874912917614 ] } },
{ "type": "Feature", "properties": { "GISJOIN": "G0800710", "GEOID": "08071", "STATEFP": "08", "COUNTYFP": "071", "STNAME": "Colorado", "COUNAME": "Las Animas", "POPULATION": 15507.0, "LATITUDE": 37.196601, "LONGITUDE": -104.503149 }, "geometry": { "type": "Point", "coordinates": [ -746674.07601122604683, -573.37024995777756 ] } },
{ "type": "Feature", "properties": { "GISJOIN": "G0800730", "GEOID": "08073", "STATEFP": "08", "COUNTYFP": "073", "STNAME": "Colorado", "COUNAME": "Lincoln", "POPULATION": 5467.0, "LATITUDE": 39.173232, "LONGITUDE": -103.613697 }, "geometry": { "type": "Point", "coordinates": [ -651016.9991669584997, 213632.252726774662733 ] } },
{ "type": "Feature", "properties": { "GISJOIN": "G0800750", "GEOID": "08075", "STATEFP": "08", "COUNTYFP": "075", "STNAME": "Colorado", "COUNAME": "Logan", "POPULATION": 22709.0, "LATITUDE": 40.639399, "LONGITUDE": -103.187715 }, "geometry": { "type": "Point", "coordinates": [ -602251.149676636210643, 374607.229789585806429 ] } },
{ "type": "Feature", "properties": { "GISJOIN": "G0800770", "GEOID": "08077", "STATEFP": "08", "COUNTYFP": "077", "STNAME": "Colorado", "COUNAME": "Mesa", "POPULATION": 146723.0, "LATITUDE": 39.092851, "LONGITUDE": -108.543768 }, "geometry": { "type": "Point", "coordinates": [ -1071786.690399925224483, 249368.058103148825467 ] } },
{ "type": "Feature", "properties": { "GISJOIN": "G0800790", "GEOID": "08079", "STATEFP": "08", "COUNTYFP": "079", "STNAME": "Colorado", "COUNAME": "Mineral", "POPULATION": 712.0, "LATITUDE": 37.798623, "LONGITUDE": -106.935586 }, "geometry": { "type": "Point", "coordinates": [ -951685.287174189346842, 88284.318148055113852 ] } },
{ "type": "Feature", "properties": { "GISJOIN": "G0800810", "GEOID": "08081", "STATEFP": "08", "COUNTYFP": "081", "STNAME": "Colorado", "COUNAME": "Moffat", "POPULATION": 13795.0, "LATITUDE": 40.515239, "LONGITUDE": -107.625859 }, "geometry": { "type": "Point", "coordinates": [ -974314.801108065061271, 397584.753567415289581 ] } },
{ "type": "Feature", "properties": { "GISJOIN": "G0800830", "GEOID": "08083", "STATEFP": "08", "COUNTYFP": "083", "STNAME": "Colorado", "COUNAME": "Montezuma", "POPULATION": 25535.0, "LATITUDE": 37.370817, "LONGITUDE": -108.557116 }, "geometry": { "type": "Point", "coordinates": [ -1098349.319055860163644, 58193.158971474505961 ] } },
{ "type": "Feature", "properties": { "GISJOIN": "G0800850", "GEOID": "08085", "STATEFP": "08", "COUNTYFP": "085", "STNAME": "Colorado", "COUNAME": "Montrose", "POPULATION": 41276.0, "LATITUDE": 38.479142, "LONGITUDE": -107.934568 }, "geometry": { "type": "Point", "coordinates": [ -1028631.178994892165065, 174417.696780948899686 ] } },
{ "type": "Feature", "properties": { "GISJOIN": "G0800870", "GEOID": "08087", "STATEFP": "08", "COUNTYFP": "087", "STNAME": "Colorado", "COUNAME": "Morgan", "POPULATION": 28159.0, "LATITUDE": 40.256023, "LONGITUDE": -103.781517 }, "geometry": { "type": "Point", "coordinates": [ -655410.72604616638273, 335724.133452420122921 ] } },
{ "type": "Feature", "properties": { "GISJOIN": "G0800890", "GEOID": "08089", "STATEFP": "08", "COUNTYFP": "089", "STNAME": "Colorado", "COUNAME": "Otero", "POPULATION": 18831.0, "LATITUDE": 38.024096, "LONGITUDE": -103.657432 }, "geometry": { "type": "Point", "coordinates": [ -665115.588221728103235, 85550.061594507656991 ] } },
{ "type": "Feature", "properties": { "GISJOIN": "G0800910", "GEOID": "08091", "STATEFP": "08", "COUNTYFP": "091", "STNAME": "Colorado", "COUNAME": "Ouray", "POPULATION": 4436.0, "LATITUDE": 38.139834, "LONGITUDE": -107.746232 }, "geometry": { "type": "Point", "coordinates": [ -1017170.86935636762064, 134653.611678148619831 ] } },
{ "type": "Feature", "properties": { "GISJOIN": "G0800930", "GEOID": "08093", "STATEFP": "08", "COUNTYFP": "093", "STNAME": "Colorado", "COUNAME": "Park", "POPULATION": 16206.0, "LATITUDE": 39.311718, "LONGITUDE": -105.623144 }, "geometry": { "type": "Point", "coordinates": [ -820741.76331886567641, 244650.935724915936589 ] } },
{ "type": "Feature", "properties": { "GISJOIN": "G0800950", "GEOID": "08095", "STATEFP": "08", "COUNTYFP": "095", "STNAME": "Colorado", "COUNAME": "Phillips", "POPULATION": 4442.0, "LATITUDE": 40.599517, "LONGITUDE": -102.387354 }, "geometry": { "type": "Point", "coordinates": [ -535597.102057263953611, 365360.100604536943138 ] } },
{ "type": "Feature", "properties": { "GISJOIN": "G0800970", "GEOID": "08097", "STATEFP": "08", "COUNTYFP": "097", "STNAME": "Colorado", "COUNAME": "Pitkin", "POPULATION": 17148.0, "LATITUDE": 39.232543, "LONGITUDE": -106.907765 }, "geometry": { "type": "Point", "coordinates": [ -930868.15020207373891, 247667.788636000826955 ] } },
{ "type": "Feature", "properties": { "GISJOIN": "G0800990", "GEOID": "08099", "STATEFP": "08", "COUNTYFP": "099", "STNAME": "Colorado", "COUNAME": "Prowers", "POPULATION": 12551.0, "LATITUDE": 38.083772, "LONGITUDE": -102.547035 }, "geometry": { "type": "Point", "coordinates": [ -568372.979511419311166, 85013.888181434012949 ] } },
{ "type": "Feature", "properties": { "GISJOIN": "G0801010", "GEOID": "08101", "STATEFP": "08", "COUNTYFP": "101", "STNAME": "Colorado", "COUNAME": "Pueblo", "POPULATION": 159063.0, "LATITUDE": 38.263685, "LONGITUDE": -104.645147 }, "geometry": { "type": "Point", "coordinates": [ -748244.587986870901659, 119650.794519781135023 ] } },
{ "type": "Feature", "properties": { "GISJOIN": "G0801030", "GEOID": "08103", "STATEFP": "08", "COUNTYFP": "103", "STNAME": "Colorado", "COUNAME": "Rio Blanco", "POPULATION": 6666.0, "LATITUDE": 40.051033, "LONGITUDE": -108.280174 }, "geometry": { "type": "Point", "coordinates": [ -1035554.224519174429588, 352909.632038618437946 ] } },
{ "type": "Feature", "properties": { "GISJOIN": "G0801050", "GEOID": "08105", "STATEFP": "08", "COUNTYFP": "105", "STNAME": "Colorado", "COUNAME": "Rio Grande", "POPULATION": 11982.0, "LATITUDE": 37.616658, "LONGITUDE": -106.238805 }, "geometry": { "type": "Point", "coordinates": [ -893482.72920276527293, 61252.268203281797469 ] } },